EQID,Earthquake Name,Moment Magnitude,Magnitude Type,Finite Fault Flag,Hypocenter Latitude (deg),Hypocenter Longitude (deg),Hypocenter Depth (km),Total Fault Length (km),Total Fault Width (km),Total Rectangular Fault Area (km*km),Number of fault rectangular segments,Segment Number,Strike (deg),Dip  (deg), Length (km),Width (km),Rake (deg),Latitude: Upper Left Corner(ULC) (deg),Longitude: ULC  (deg),Depth: ULC (km),Segment Number,Strike (deg),Dip  (deg), Length (km),Width (km),Rake (deg),Latitude: Upper Left Corner(ULC) (deg),Longitude: ULC  (deg),Depth: ULC (km),Segment Number,Strike (deg),Dip  (deg), Length (km),Width (km),Rake (deg),Latitude: Upper Left Corner(ULC) (deg),Longitude: ULC  (deg),Depth: ULC (km),Segment Number,Strike (deg),Dip  (deg), Length (km),Width (km),Rake (deg),Latitude: Upper Left Corner(ULC) (deg),Longitude: ULC  (deg),Depth: ULC (km),Segment Number,Strike (deg),Dip  (deg), Length (km),Width (km),Rake (deg),Latitude: Upper Left Corner(ULC) (deg),Longitude: ULC  (deg),Depth: ULC (km),Segment Number,Strike (deg),Dip  (deg), Length (km),Width (km),Rake (deg),Latitude: Upper Left Corner(ULC) (deg),Longitude: ULC  (deg),Depth: ULC (km),Segment Number,Strike (deg),Dip  (deg), Length (km),Width (km),Rake (deg),Latitude: Upper Left Corner(ULC) (deg),Longitude: ULC  (deg),Depth: ULC (km),Segment Number,Strike (deg),Dip  (deg), Length (km),Width (km),Rake (deg),Latitude: Upper Left Corner(ULC) (deg),Longitude: ULC  (deg),Depth: ULC (km),Segment Number,Strike (deg),Dip  (deg), Length (km),Width (km),Rake (deg),Latitude: Upper Left Corner(ULC) (deg),Longitude: ULC  (deg),Depth: ULC (km),Segment Number,Strike (deg),Dip  (deg), Length (km),Width (km),Rake (deg),Latitude: Upper Left Corner(ULC) (deg),Longitude: ULC  (deg),Depth: ULC (km),Segment Number,Strike (deg),Dip  (deg), Length (km),Width (km),Rake (deg),Latitude: Upper Left Corner(ULC) (deg),Longitude: ULC  (deg),Depth: ULC (km),Segment Number,Strike (deg),Dip  (deg), Length (km),Width (km),Rake (deg),Latitude: Upper Left Corner (ULC) (deg),Longitude: ULC  (deg),Depth: ULC (km)
1,"Helena, Montana-01",6.00,Mw,0,46.61,-111.96,6,16.2,4.2,68.1,1,1,268,75,16.2,4.2,160,46.6035,-111.8211,2,,,,,,,,,,,,,,,,,,,,,,,,,,,,,,,,,,,,,,,,,,,,,,,,,,,,,,,,,,,,,,,,,,,,,,,,,,,,,,,,,,,,,,,,,,,,,,,,,,,
2,"Helena, Montana-02",6.00, U,0,46.62,-111.97,6,15.3,7.9,120,1,1,268,75,15.3,7.9,160,46.6112,-111.9394,2,,,,,,,,,,,,,,,,,,,,,,,,,,,,,,,,,,,,,,,,,,,,,,,,,,,,,,,,,,,,,,,,,,,,,,,,,,,,,,,,,,,,,,,,,,,,,,,,,,,
3,Humbolt Bay,5.80,Mw,0,40.4,-125.1,10,8.9,8.3,74.3,1,1,196.2,90,8.9,8.3,0,40.4376,-125.0856,6.4,,,,,,,,,,,,,,,,,,,,,,,,,,,,,,,,,,,,,,,,,,,,,,,,,,,,,,,,,,,,,,,,,,,,,,,,,,,,,,,,,,,,,,,,,,,,,,,,,,,
4,Imperial Valley-01,5.00, U,0,32.9,-115.217,16,2.2,3.8,8.4,1,1,205.5,90,2.2,3.8,0,32.9095,-115.2116,13.1,,,,,,,,,,,,,,,,,,,,,,,,,,,,,,,,,,,,,,,,,,,,,,,,,,,,,,,,,,,,,,,,,,,,,,,,,,,,,,,,,,,,,,,,,,,,,,,,,,,
5,Northwest Calif-01,5.50,Mw,0,40.3,-124.8,10,4.4,5.7,25,1,1,35,90,4.4,5.7,0,40.2845,-124.8142,9.5,,,,,,,,,,,,,,,,,,,,,,,,,,,,,,,,,,,,,,,,,,,,,,,,,,,,,,,,,,,,,,,,,,,,,,,,,,,,,,,,,,,,,,,,,,,,,,,,,,,
6,Imperial Valley-02,6.95,Mw,1,32.7601,-115.4162,8.8,63,13,818.8,1,1,323,80,63,13,180,32.461,-115.17,0,,,,,,,,,,,,,,,,,,,,,,,,,,,,,,,,,,,,,,,,,,,,,,,,,,,,,,,,,,,,,,,,,,,,,,,,,,,,,,,,,,,,,,,,,,,,,,,,,,,
7,Northwest Calif-02,6.60, U,0,40.7,-125.4,10,20.8,9,186,1,1,87.9,90,20.8,9,0,40.6949,-125.5758,3.4,,,,,,,,,,,,,,,,,,,,,,,,,,,,,,,,,,,,,,,,,,,,,,,,,,,,,,,,,,,,,,,,,,,,,,,,,,,,,,,,,,,,,,,,,,,,,,,,,,,
8,Northern Calif-01,6.40, U,0,40.4,-124.8,10,28.6,12.1,347.6,1,1,299.4,90,28.6,12.1,0,40.3591,-124.7049,3.7,,,,,,,,,,,,,,,,,,,,,,,,,,,,,,,,,,,,,,,,,,,,,,,,,,,,,,,,,,,,,,,,,,,,,,,,,,,,,,,,,,,,,,,,,,,,,,,,,,,
9,Borrego,6.50, U,0,33.049,-116.088,8,26.9,15.2,409.7,1,1,40,90,26.9,15.2,0,32.9146,-116.2223,0,,,,,,,,,,,,,,,,,,,,,,,,,,,,,,,,,,,,,,,,,,,,,,,,,,,,,,,,,,,,,,,,,,,,,,,,,,,,,,,,,,,,,,,,,,,,,,,,,,,
10,Imperial Valley-03,5.60, U,0,33.032,-115.654,9.5,7,7.2,50.6,1,1,325.1,90,7,7.2,0,33.004,-115.6307,5.7,,,,,,,,,,,,,,,,,,,,,,,,,,,,,,,,,,,,,,,,,,,,,,,,,,,,,,,,,,,,,,,,,,,,,,,,,,,,,,,,,,,,,,,,,,,,,,,,,,,
11,Northwest Calif-03,5.80,Mw,0,40.283,-124.8,10,5.9,8.2,48.1,1,1,283.1,90,5.9,8.2,0,40.2758,-124.7598,2,,,,,,,,,,,,,,,,,,,,,,,,,,,,,,,,,,,,,,,,,,,,,,,,,,,,,,,,,,,,,,,,,,,,,,,,,,,,,,,,,,,,,,,,,,,,,,,,,,,
12a,Kern County,7.36,Mw,1,34.9906,-119.024,15.6,29.7,21.7,645.7,1,1,51,75,29.7,21.7,61,34.97,-119.1,6,,,,,,,,,,,,,,,,,,,,,,,,,,,,,,,,,,,,,,,,,,,,,,,,,,,,,,,,,,,,,,,,,,,,,,,,,,,,,,,,,,,,,,,,,,,,,,,,,,,
12b,Kern County,7.36,Mw,1,35.1104,-118.8187,12.5,35,12.9,452.9,1,1,51,75,35,12.9,61,35.1339,-118.8418,0,,,,,,,,,,,,,,,,,,,,,,,,,,,,,,,,,,,,,,,,,,,,,,,,,,,,,,,,,,,,,,,,,,,,,,,,,,,,,,,,,,,,,,,,,,,,,,,,,,,
13,Northern Calif-02,5.20,Mw,0,40.2,-124.417,10,4.1,5.6,23,1,1,0.4,90,4.1,5.6,0,40.1741,-124.4172,7.1,,,,,,,,,,,,,,,,,,,,,,,,,,,,,,,,,,,,,,,,,,,,,,,,,,,,,,,,,,,,,,,,,,,,,,,,,,,,,,,,,,,,,,,,,,,,,,,,,,,
14,Southern Calif,6.00, U,0,35.833,-121.167,10,8.3,12.1,100.3,1,1,94.5,90,8.3,12.1,0,35.8357,-121.2088,3,,,,,,,,,,,,,,,,,,,,,,,,,,,,,,,,,,,,,,,,,,,,,,,,,,,,,,,,,,,,,,,,,,,,,,,,,,,,,,,,,,,,,,,,,,,,,,,,,,,
15,Imperial Valley-04,5.50, U,0,32.783,-115.717,9.5,4.8,8.9,42.5,1,1,13,90,4.8,8.9,0,32.77,-115.7206,4.1,,,,,,,,,,,,,,,,,,,,,,,,,,,,,,,,,,,,,,,,,,,,,,,,,,,,,,,,,,,,,,,,,,,,,,,,,,,,,,,,,,,,,,,,,,,,,,,,,,,
16,Central Calif-01,5.30, U,0,36.933,-121.683,7.4,3.3,3,9.9,1,1,265.2,90,3.3,3,0,36.9344,-121.6617,5.9,,,,,,,,,,,,,,,,,,,,,,,,,,,,,,,,,,,,,,,,,,,,,,,,,,,,,,,,,,,,,,,,,,,,,,,,,,,,,,,,,,,,,,,,,,,,,,,,,,,
17,Northern Calif-03,6.50, U,0,40.8167,-124.083,10,14.9,9.1,136.6,1,1,65.6,90,14.9,9.1,0,40.7972,-124.1398,4,,,,,,,,,,,,,,,,,,,,,,,,,,,,,,,,,,,,,,,,,,,,,,,,,,,,,,,,,,,,,,,,,,,,,,,,,,,,,,,,,,,,,,,,,,,,,,,,,,,
18,Imperial Valley-05,5.40, U,0,32.922,-115.591,9.5,8.8,7.5,65.8,1,1,98.5,90,8.8,7.5,0,32.9293,-115.6497,5.6,,,,,,,,,,,,,,,,,,,,,,,,,,,,,,,,,,,,,,,,,,,,,,,,,,,,,,,,,,,,,,,,,,,,,,,,,,,,,,,,,,,,,,,,,,,,,,,,,,,
19,El Alamo,6.80, U,0,31.75,-115.917,16,53.5,14.2,762.9,1,1,288,88,53.5,14.2,176,31.7465,-115.915,7,,,,,,,,,,,,,,,,,,,,,,,,,,,,,,,,,,,,,,,,,,,,,,,,,,,,,,,,,,,,,,,,,,,,,,,,,,,,,,,,,,,,,,,,,,,,,,,,,,,
20,San Francisco,5.28,Mw,0,37.67,-122.48,8,5.3,3.4,18.2,1,1,119,75,5.3,3.4,80,37.683,-122.4918,5.2,,,,,,,,,,,,,,,,,,,,,,,,,,,,,,,,,,,,,,,,,,,,,,,,,,,,,,,,,,,,,,,,,,,,,,,,,,,,,,,,,,,,,,,,,,,,,,,,,,,
21,Central Calif-02,5.00, U,0,36.783,-121.433,7.4,3.8,3.1,12.1,1,1,324.7,90,3.8,3.1,0,36.7662,-121.4182,5.3,,,,,,,,,,,,,,,,,,,,,,,,,,,,,,,,,,,,,,,,,,,,,,,,,,,,,,,,,,,,,,,,,,,,,,,,,,,,,,,,,,,,,,,,,,,,,,,,,,,
22,Northern Calif-04,5.70,Mw,0,40.817,-124.883,10,9.7,8.4,81,1,1,314.9,90,9.7,8.4,0,40.8047,-124.8667,5.5,,,,,,,,,,,,,,,,,,,,,,,,,,,,,,,,,,,,,,,,,,,,,,,,,,,,,,,,,,,,,,,,,,,,,,,,,,,,,,,,,,,,,,,,,,,,,,,,,,,
23,Hollister-01,5.60, U,0,36.683,-121.3,7.4,7.7,8.9,68.5,1,1,269,90,7.7,8.9,0,36.6837,-121.2476,0.6,,,,,,,,,,,,,,,,,,,,,,,,,,,,,,,,,,,,,,,,,,,,,,,,,,,,,,,,,,,,,,,,,,,,,,,,,,,,,,,,,,,,,,,,,,,,,,,,,,,
24,Hollister-02,5.50, U,0,36.7,-121.3,7.4,7.1,7.6,54,1,1,19.8,90,7.1,7.6,0,36.6633,-121.3165,5.6,,,,,,,,,,,,,,,,,,,,,,,,,,,,,,,,,,,,,,,,,,,,,,,,,,,,,,,,,,,,,,,,,,,,,,,,,,,,,,,,,,,,,,,,,,,,,,,,,,,
25,Parkfield,6.19,Mw,1,35.955,-120.4983,10,24.9,12,299.3,2,1,137.1,90,15.9,12,180,35.955,-120.4983,0,2,145.8,90,9.1,12,180,35.8506,-120.3786,0,,,,,,,,,,,,,,,,,,,,,,,,,,,,,,,,,,,,,,,,,,,,,,,,,,,,,,,,,,,,,,,,,,,,,,,,,,,,,,,,,,,,,,,,,,
26,Northern Calif-05,5.60,Mw,0,40.5,-124.6,10,8.3,8.6,72.1,1,1,312,90,8.3,8.6,180,40.4684,-124.5539,8.8,,,,,,,,,,,,,,,,,,,,,,,,,,,,,,,,,,,,,,,,,,,,,,,,,,,,,,,,,,,,,,,,,,,,,,,,,,,,,,,,,,,,,,,,,,,,,,,,,,,
27,Northern Calif-06,5.20, U,0,37.01,-121.788,7.4,3,2.9,8.7,1,1,70.7,90,3,2.9,0,37.0089,-121.792,6.6,,,,,,,,,,,,,,,,,,,,,,,,,,,,,,,,,,,,,,,,,,,,,,,,,,,,,,,,,,,,,,,,,,,,,,,,,,,,,,,,,,,,,,,,,,,,,,,,,,,
28,Borrego Mtn,6.63,Mw,1,33.189,-116.143,8,30,12,360.1,1,1,317,78,30,12,-178,33.0083,-115.9667,0,,,,,,,,,,,,,,,,,,,,,,,,,,,,,,,,,,,,,,,,,,,,,,,,,,,,,,,,,,,,,,,,,,,,,,,,,,,,,,,,,,,,,,,,,,,,,,,,,,,
29,Lytle Creek,5.33,Mw,0,34.2698,-117.54,8,4.5,3.8,17.2,1,1,325,48,4.5,3.8,59,34.2421,-117.5449,5.6,,,,,,,,,,,,,,,,,,,,,,,,,,,,,,,,,,,,,,,,,,,,,,,,,,,,,,,,,,,,,,,,,,,,,,,,,,,,,,,,,,,,,,,,,,,,,,,,,,,
30a,San Fernando,6.61,Mw,1,34.44,-118.41,13,16,16.1,257.7,1,1,290,54,16,16.1,83,34.3467,-118.3318,3,,,,,,,,,,,,,,,,,,,,,,,,,,,,,,,,,,,,,,,,,,,,,,,,,,,,,,,,,,,,,,,,,,,,,,,,,,,,,,,,,,,,,,,,,,,,,,,,,,,
30b,San Fernando,6.61,Mw,1,34.3877,-118.4101,8,16,11.3,181,1,1,285,45,16,11.3,83,34.2943,-118.3244,0,,,,,,,,,,,,,,,,,,,,,,,,,,,,,,,,,,,,,,,,,,,,,,,,,,,,,,,,,,,,,,,,,,,,,,,,,,,,,,,,,,,,,,,,,,,,,,,,,,,
31,"Managua, Nicaragua-01",6.24,Mw,1,12.15,-86.27,5,11.5,6,69,1,1,40,80,11.5,6,0,12.1289,-86.2943,2,,,,,,,,,,,,,,,,,,,,,,,,,,,,,,,,,,,,,,,,,,,,,,,,,,,,,,,,,,,,,,,,,,,,,,,,,,,,,,,,,,,,,,,,,,,,,,,,,,,
32,"Managua, Nicaragua-02",5.20, U,0,12.15,-86.27,5,3.6,3.6,13.1,1,1,40,80,3.6,3.6,0,12.142,-86.2823,2.4,,,,,,,,,,,,,,,,,,,,,,,,,,,,,,,,,,,,,,,,,,,,,,,,,,,,,,,,,,,,,,,,,,,,,,,,,,,,,,,,,,,,,,,,,,,,,,,,,,,
33,Point Mugu,5.65,Mw,0,34.065,-119.035,8,7.8,4.2,32.6,1,1,249,49,7.8,4.2,75,34.0595,-118.9857,5.5,,,,,,,,,,,,,,,,,,,,,,,,,,,,,,,,,,,,,,,,,,,,,,,,,,,,,,,,,,,,,,,,,,,,,,,,,,,,,,,,,,,,,,,,,,,,,,,,,,,
34,Hollister-03,5.14,Mw,0,36.9202,-121.4663,6.1,2.9,3.3,9.5,1,1,272,90,2.9,3.3,0,36.9197,-121.448,3.1,,,,,,,,,,,,,,,,,,,,,,,,,,,,,,,,,,,,,,,,,,,,,,,,,,,,,,,,,,,,,,,,,,,,,,,,,,,,,,,,,,,,,,,,,,,,,,,,,,,
35,Northern Calif-07,5.20,Mw,0,40.57,-124.14,21,4.1,4.3,17.5,1,1,75,72,4.1,4.3,0,40.5734,-124.166,18.1,,,,,,,,,,,,,,,,,,,,,,,,,,,,,,,,,,,,,,,,,,,,,,,,,,,,,,,,,,,,,,,,,,,,,,,,,,,,,,,,,,,,,,,,,,,,,,,,,,,
36,Oroville-01,5.89,Mw,0,39.439,-121.528,5.5,6.3,5,31.4,1,1,180,65,6.3,5,-70,39.4803,-121.5079,1.8,,,,,,,,,,,,,,,,,,,,,,,,,,,,,,,,,,,,,,,,,,,,,,,,,,,,,,,,,,,,,,,,,,,,,,,,,,,,,,,,,,,,,,,,,,,,,,,,,,,
37,Oroville-02,4.79,Mw,0,39.44,-121.46,3.6,3.1,4.2,12.8,1,1,166,50,3.1,4.2,-69,39.4593,-121.4359,0.6,,,,,,,,,,,,,,,,,,,,,,,,,,,,,,,,,,,,,,,,,,,,,,,,,,,,,,,,,,,,,,,,,,,,,,,,,,,,,,,,,,,,,,,,,,,,,,,,,,,
38,Oroville-04,4.37,Mw,0,39.433,-121.475,5.1,1.8,1.6,2.9,1,1,180,58,1.8,1.6,-59,39.4404,-121.4663,3.9,,,,,,,,,,,,,,,,,,,,,,,,,,,,,,,,,,,,,,,,,,,,,,,,,,,,,,,,,,,,,,,,,,,,,,,,,,,,,,,,,,,,,,,,,,,,,,,,,,,
39,Oroville-03,4.70,Mw,0,39.502,-121.512,7.6,2.5,2.4,6.2,1,1,177.1,46,2.5,2.4,-91,39.5144,-121.4943,6,,,,,,,,,,,,,,,,,,,,,,,,,,,,,,,,,,,,,,,,,,,,,,,,,,,,,,,,,,,,,,,,,,,,,,,,,,,,,,,,,,,,,,,,,,,,,,,,,,,
40,"Friuli, Italy-01",6.50,Mw,1,46.345,13.24,5.1,13,13.7,178,1,1,251.8,11.8,13,13.7,80,46.2487,13.3747,2.3,,,,,,,,,,,,,,,,,,,,,,,,,,,,,,,,,,,,,,,,,,,,,,,,,,,,,,,,,,,,,,,,,,,,,,,,,,,,,,,,,,,,,,,,,,,,,,,,,,,
41,"Gazli, USSR",6.80,Mw,1,40.465,63.462,18.2,22.5,17,382.6,1,1,267,58,22.5,17,90,40.391,63.616,3.8,,,,,,,,,,,,,,,,,,,,,,,,,,,,,,,,,,,,,,,,,,,,,,,,,,,,,,,,,,,,,,,,,,,,,,,,,,,,,,,,,,,,,,,,,,,,,,,,,,,
42,"Fruili, Italy-03",5.50,Mw,0,46.3,13.23,6,4,7.3,29.6,1,1,233,16,4,7.3,75,46.2807,13.2638,5.1,,,,,,,,,,,,,,,,,,,,,,,,,,,,,,,,,,,,,,,,,,,,,,,,,,,,,,,,,,,,,,,,,,,,,,,,,,,,,,,,,,,,,,,,,,,,,,,,,,,
43,"Friuli, Italy-02",5.91,Mw,1,46.375,13.067,3.7,4.9,8.3,40.7,1,1,215.1,18.9,4.9,8.3,70,46.3524,13.1687,1,,,,,,,,,,,,,,,,,,,,,,,,,,,,,,,,,,,,,,,,,,,,,,,,,,,,,,,,,,,,,,,,,,,,,,,,,,,,,,,,,,,,,,,,,,,,,,,,,,,
44,"Izmir, Turkey",5.30, U,0,38.41,27.19,5,3.4,2.7,9.2,1,1,310.2,53,3.4,2.7,-90,38.3847,27.2031,3.1,,,,,,,,,,,,,,,,,,,,,,,,,,,,,,,,,,,,,,,,,,,,,,,,,,,,,,,,,,,,,,,,,,,,,,,,,,,,,,,,,,,,,,,,,,,,,,,,,,,
45,Santa Barbara,5.92,Mw,1,34.3987,-119.6813,12.7,10,5,50,1,1,295,30,10,5,57,34.3831,-119.6901,11.6,,,,,,,,,,,,,,,,,,,,,,,,,,,,,,,,,,,,,,,,,,,,,,,,,,,,,,,,,,,,,,,,,,,,,,,,,,,,,,,,,,,,,,,,,,,,,,,,,,,
46,"Tabas, Iran",7.35,Mw,1,33.215,57.323,5.8,90,35,3149.7,1,1,330,25,90,35,110,33.0167,57.333,1,,,,,,,,,,,,,,,,,,,,,,,,,,,,,,,,,,,,,,,,,,,,,,,,,,,,,,,,,,,,,,,,,,,,,,,,,,,,,,,,,,,,,,,,,,,,,,,,,,,
47,"Dursunbey, Turkey",5.34,Mw,0,39.66,28.65,7,4.8,2.5,12.2,1,1,111,34,4.8,2.5,-85,39.677,28.6479,5.9,,,,,,,,,,,,,,,,,,,,,,,,,,,,,,,,,,,,,,,,,,,,,,,,,,,,,,,,,,,,,,,,,,,,,,,,,,,,,,,,,,,,,,,,,,,,,,,,,,,
48,Coyote Lake,5.74,Mw,1,37.065,-121.49,8,6.6,7,46.2,1,1,336,80,6.6,7,176,37.0282,-121.4802,3.1,,,,,,,,,,,,,,,,,,,,,,,,,,,,,,,,,,,,,,,,,,,,,,,,,,,,,,,,,,,,,,,,,,,,,,,,,,,,,,,,,,,,,,,,,,,,,,,,,,,
49,"Norcia, Italy",5.90,Mw,0,42.73,12.96,6,14.9,7.1,106.5,1,1,315,64,14.9,7.1,-100,42.6485,13.031,1.3,,,,,,,,,,,,,,,,,,,,,,,,,,,,,,,,,,,,,,,,,,,,,,,,,,,,,,,,,,,,,,,,,,,,,,,,,,,,,,,,,,,,,,,,,,,,,,,,,,,
50,Imperial Valley-06,6.53,Mw,1,32.644,-115.307,10,50,13,649.9,1,1,323,80,50,13,180,32.5493,-115.2457,0,,,,,,,,,,,,,,,,,,,,,,,,,,,,,,,,,,,,,,,,,,,,,,,,,,,,,,,,,,,,,,,,,,,,,,,,,,,,,,,,,,,,,,,,,,,,,,,,,,,
51,Imperial Valley-07,5.01,Mw,0,32.7667,-115.4413,9.5,3.6,4.2,15.3,1,1,319.9,90,3.6,4.2,180,32.7539,-115.4285,7.3,,,,,,,,,,,,,,,,,,,,,,,,,,,,,,,,,,,,,,,,,,,,,,,,,,,,,,,,,,,,,,,,,,,,,,,,,,,,,,,,,,,,,,,,,,,,,,,,,,,
52,Imperial Valley-08,5.62,Mw,0,33.022,-115.506,3.3,8.5,4,34.3,1,1,157,90,8.5,4,180,33.0826,-115.5367,2.6,,,,,,,,,,,,,,,,,,,,,,,,,,,,,,,,,,,,,,,,,,,,,,,,,,,,,,,,,,,,,,,,,,,,,,,,,,,,,,,,,,,,,,,,,,,,,,,,,,,
53,Livermore-01,5.80,Mw,0,37.855,-121.816,12,7.4,7.4,54.6,1,1,167,85,7.4,7.4,160,37.8952,-121.8227,7.1,,,,,,,,,,,,,,,,,,,,,,,,,,,,,,,,,,,,,,,,,,,,,,,,,,,,,,,,,,,,,,,,,,,,,,,,,,,,,,,,,,,,,,,,,,,,,,,,,,,
54,Livermore-02,5.42,Mw,0,37.737,-121.74,14.5,5.6,4.2,23.5,1,1,321,70,5.6,4.2,161,37.7083,-121.7272,11.4,,,,,,,,,,,,,,,,,,,,,,,,,,,,,,,,,,,,,,,,,,,,,,,,,,,,,,,,,,,,,,,,,,,,,,,,,,,,,,,,,,,,,,,,,,,,,,,,,,,
55,Anza (Horse Canyon)-01,5.19,Mw,0,33.505,-116.514,13.6,3.7,3.6,13.2,1,1,308,70,3.7,3.6,170,33.4878,-116.5055,10.8,,,,,,,,,,,,,,,,,,,,,,,,,,,,,,,,,,,,,,,,,,,,,,,,,,,,,,,,,,,,,,,,,,,,,,,,,,,,,,,,,,,,,,,,,,,,,,,,,,,
56,Mammoth Lakes-01,6.06,Mw,1,37.609,-118.846,9,15,10,150,1,1,12,50,15,10,-35,37.5551,-118.934,1.3,,,,,,,,,,,,,,,,,,,,,,,,,,,,,,,,,,,,,,,,,,,,,,,,,,,,,,,,,,,,,,,,,,,,,,,,,,,,,,,,,,,,,,,,,,,,,,,,,,,
57,Mammoth Lakes-02,5.69,Mw,1,37.628,-118.927,14,10,6,60,1,1,90,90,10,6,0,37.628,-118.9724,9,,,,,,,,,,,,,,,,,,,,,,,,,,,,,,,,,,,,,,,,,,,,,,,,,,,,,,,,,,,,,,,,,,,,,,,,,,,,,,,,,,,,,,,,,,,,,,,,,,,
58,Mammoth Lakes-03,5.91,Mw,0,37.561,-118.831,16,8.8,5.2,45.9,1,1,15,50,8.8,5.2,-11,37.5189,-118.8845,12,,,,,,,,,,,,,,,,,,,,,,,,,,,,,,,,,,,,,,,,,,,,,,,,,,,,,,,,,,,,,,,,,,,,,,,,,,,,,,,,,,,,,,,,,,,,,,,,,,,
59,Mammoth Lakes-04,5.70,Mw,0,37.625,-118.859,5,7.8,4,31.5,1,1,22,50,7.8,4,28,37.5719,-118.9007,3.6,,,,,,,,,,,,,,,,,,,,,,,,,,,,,,,,,,,,,,,,,,,,,,,,,,,,,,,,,,,,,,,,,,,,,,,,,,,,,,,,,,,,,,,,,,,,,,,,,,,
60,Mammoth Lakes-05,5.70,Mw,0,37.543,-118.888,4.7,5.9,6.4,37.5,1,1,15.8,60,5.9,6.4,0,37.5274,-118.9255,0,,,,,,,,,,,,,,,,,,,,,,,,,,,,,,,,,,,,,,,,,,,,,,,,,,,,,,,,,,,,,,,,,,,,,,,,,,,,,,,,,,,,,,,,,,,,,,,,,,,
61,Mammoth Lakes-06,5.94,Mw,0,37.506,-118.826,14,9.2,5.3,48.4,1,1,22,50,9.2,5.3,-28,37.4798,-118.8744,10.6,,,,,,,,,,,,,,,,,,,,,,,,,,,,,,,,,,,,,,,,,,,,,,,,,,,,,,,,,,,,,,,,,,,,,,,,,,,,,,,,,,,,,,,,,,,,,,,,,,,
62,Mammoth Lakes-07,4.73,Mw,0,37.595,-118.791,6,2.2,2.6,5.9,1,1,9.9,75,2.2,2.6,0,37.5853,-118.7983,4.3,,,,,,,,,,,,,,,,,,,,,,,,,,,,,,,,,,,,,,,,,,,,,,,,,,,,,,,,,,,,,,,,,,,,,,,,,,,,,,,,,,,,,,,,,,,,,,,,,,,
63,Mammoth Lakes-08,4.80,Mw,0,37.595,-118.785,6,2.1,2.3,4.8,1,1,9.9,75,2.1,2.3,0,37.5883,-118.792,4.2,,,,,,,,,,,,,,,,,,,,,,,,,,,,,,,,,,,,,,,,,,,,,,,,,,,,,,,,,,,,,,,,,,,,,,,,,,,,,,,,,,,,,,,,,,,,,,,,,,,
64,"Victoria, Mexico",6.33,Mw,1,32.185,-115.076,11,30,10,300,1,1,318,90,30,10,0,32.1182,-115.005,4,,,,,,,,,,,,,,,,,,,,,,,,,,,,,,,,,,,,,,,,,,,,,,,,,,,,,,,,,,,,,,,,,,,,,,,,,,,,,,,,,,,,,,,,,,,,,,,,,,,
65,Mammoth Lakes-09,4.85,Mw,0,37.546,-118.8823,7.6,1.3,2.2,2.9,1,1,135.3,67.5,1.3,2.2,0,37.554,-118.8835,6.3,,,,,,,,,,,,,,,,,,,,,,,,,,,,,,,,,,,,,,,,,,,,,,,,,,,,,,,,,,,,,,,,,,,,,,,,,,,,,,,,,,,,,,,,,,,,,,,,,,,
66,"Almiros, Greece",5.20,MS,0,39.28,22.87,7,3.9,2.8,10.9,1,1,332.4,55,3.9,2.8,-90,39.258,22.8732,5.7,,,,,,,,,,,,,,,,,,,,,,,,,,,,,,,,,,,,,,,,,,,,,,,,,,,,,,,,,,,,,,,,,,,,,,,,,,,,,,,,,,,,,,,,,,,,,,,,,,,
67,Trinidad,7.20,MS,0,41.074,-124.61,15.1,52.6,12.9,678.6,1,1,48,90,52.6,12.9,0,40.9026,-124.8615,5.5,,,,,,,,,,,,,,,,,,,,,,,,,,,,,,,,,,,,,,,,,,,,,,,,,,,,,,,,,,,,,,,,,,,,,,,,,,,,,,,,,,,,,,,,,,,,,,,,,,,
68,"Irpinia, Italy-01",6.90,Mw,1,40.8059,15.3372,9.5,47,15,705,1,1,312.8,60,47,15,-90,40.627,15.488,-0.8,,,,,,,,,,,,,,,,,,,,,,,,,,,,,,,,,,,,,,,,,,,,,,,,,,,,,,,,,,,,,,,,,,,,,,,,,,,,,,,,,,,,,,,,,,,,,,,,,,,
69,"Irpinia, Italy-02",6.20,Mw,1,40.8464,15.3316,7,15,10.1,151.5,1,1,124,70,15,10.1,-90,40.896,15.293,-0.6,,,,,,,,,,,,,,,,,,,,,,,,,,,,,,,,,,,,,,,,,,,,,,,,,,,,,,,,,,,,,,,,,,,,,,,,,,,,,,,,,,,,,,,,,,,,,,,,,,,
70,"Irpinia, Italy-03",4.70, U,0,40.85,15.28,15,2.9,2.4,6.9,1,1,105.2,65,2.9,2.4,-90,40.8637,15.2529,13.1,,,,,,,,,,,,,,,,,,,,,,,,,,,,,,,,,,,,,,,,,,,,,,,,,,,,,,,,,,,,,,,,,,,,,,,,,,,,,,,,,,,,,,,,,,,,,,,,,,,
71,Taiwan SMART1(5),5.90,Mw,0,24.4292,121.8963,11.1,8.9,4.6,41,1,1,109,64,8.9,4.6,64,24.4593,121.8534,7.5,,,,,,,,,,,,,,,,,,,,,,,,,,,,,,,,,,,,,,,,,,,,,,,,,,,,,,,,,,,,,,,,,,,,,,,,,,,,,,,,,,,,,,,,,,,,,,,,,,,
72,"Corinth, Greece",6.60,Mw,1,38.1175,22.8708,7.2,37,13,481,1,1,290,44,37,13,-60,37.9406,23.2382,0,,,,,,,,,,,,,,,,,,,,,,,,,,,,,,,,,,,,,,,,,,,,,,,,,,,,,,,,,,,,,,,,,,,,,,,,,,,,,,,,,,,,,,,,,,,,,,,,,,,
73,Westmorland,5.90,Mw,1,33.1,-115.62,2.3,10,7,70,1,1,64,90,10,7,0,33.0764,-115.6778,2,,,,,,,,,,,,,,,,,,,,,,,,,,,,,,,,,,,,,,,,,,,,,,,,,,,,,,,,,,,,,,,,,,,,,,,,,,,,,,,,,,,,,,,,,,,,,,,,,,,
74,Mammoth Lakes-10,5.34,Mw,0,37.63,-118.93,3,4.6,5.4,25.1,1,1,287.9,90,4.6,5.4,180,37.6233,-118.9038,0,,,,,,,,,,,,,,,,,,,,,,,,,,,,,,,,,,,,,,,,,,,,,,,,,,,,,,,,,,,,,,,,,,,,,,,,,,,,,,,,,,,,,,,,,,,,,,,,,,,
75,Mammoth Lakes-11,5.31,Mw,0,37.63,-118.94,4.5,4.4,3.5,15.3,1,1,279.9,90,4.4,3.5,180,37.6259,-118.9106,2.9,,,,,,,,,,,,,,,,,,,,,,,,,,,,,,,,,,,,,,,,,,,,,,,,,,,,,,,,,,,,,,,,,,,,,,,,,,,,,,,,,,,,,,,,,,,,,,,,,,,
76,Coalinga-01,6.36,Mw,1,36.233,-120.31,4.6,16,11,176,1,1,137,30,16,11,90,36.2903,-120.3458,3.4,,,,,,,,,,,,,,,,,,,,,,,,,,,,,,,,,,,,,,,,,,,,,,,,,,,,,,,,,,,,,,,,,,,,,,,,,,,,,,,,,,,,,,,,,,,,,,,,,,,
77,Coalinga-02,5.09,Mw,0,36.246,-120.299,12,4.1,4.6,18.9,1,1,136,44,4.1,4.6,106,36.2723,-120.3072,10.6,,,,,,,,,,,,,,,,,,,,,,,,,,,,,,,,,,,,,,,,,,,,,,,,,,,,,,,,,,,,,,,,,,,,,,,,,,,,,,,,,,,,,,,,,,,,,,,,,,,
78,Coalinga-03,5.38,Mw,0,36.256,-120.45,2.4,7.3,5,36.4,1,1,17,50,7.3,5,90,36.2369,-120.4807,0,,,,,,,,,,,,,,,,,,,,,,,,,,,,,,,,,,,,,,,,,,,,,,,,,,,,,,,,,,,,,,,,,,,,,,,,,,,,,,,,,,,,,,,,,,,,,,,,,,,
79,Coalinga-04,5.18,Mw,0,36.251,-120.4,9,3.7,4.9,18.4,1,1,18,41,3.7,4.9,116,36.244,-120.4375,6.4,,,,,,,,,,,,,,,,,,,,,,,,,,,,,,,,,,,,,,,,,,,,,,,,,,,,,,,,,,,,,,,,,,,,,,,,,,,,,,,,,,,,,,,,,,,,,,,,,,,
80,Coalinga-05,5.77,Mw,0,36.241,-120.409,7.4,6.3,6.1,38.3,1,1,355,38,6.3,6.1,102,36.2064,-120.4337,5.4,,,,,,,,,,,,,,,,,,,,,,,,,,,,,,,,,,,,,,,,,,,,,,,,,,,,,,,,,,,,,,,,,,,,,,,,,,,,,,,,,,,,,,,,,,,,,,,,,,,
81,Coalinga-06,4.89,Mw,0,36.222,-120.407,7.9,3.3,2.4,8.1,1,1,341.9,30,3.3,2.4,85,36.2055,-120.4232,6.8,,,,,,,,,,,,,,,,,,,,,,,,,,,,,,,,,,,,,,,,,,,,,,,,,,,,,,,,,,,,,,,,,,,,,,,,,,,,,,,,,,,,,,,,,,,,,,,,,,,
82,Coalinga-07,5.21,Mw,0,36.229,-120.398,8.4,4.5,4.6,21,1,1,348.1,38,4.5,4.6,90,36.2082,-120.4111,7.1,,,,,,,,,,,,,,,,,,,,,,,,,,,,,,,,,,,,,,,,,,,,,,,,,,,,,,,,,,,,,,,,,,,,,,,,,,,,,,,,,,,,,,,,,,,,,,,,,,,
83,"Ierissos, Greece",6.70,Mw,1,40.18,24.73,9,42,14,588.2,1,1,48,83,42,14,-174,39.9636,24.3999,1,,,,,,,,,,,,,,,,,,,,,,,,,,,,,,,,,,,,,,,,,,,,,,,,,,,,,,,,,,,,,,,,,,,,,,,,,,,,,,,,,,,,,,,,,,,,,,,,,,,
84,Trinidad offshore,5.70,MS,0,40.3732,-124.9227,11.9,7.7,4.3,33.1,1,1,195,66,7.7,4.3,28,40.4093,-124.8928,8.8,,,,,,,,,,,,,,,,,,,,,,,,,,,,,,,,,,,,,,,,,,,,,,,,,,,,,,,,,,,,,,,,,,,,,,,,,,,,,,,,,,,,,,,,,,,,,,,,,,,
85,Coalinga-08,5.23,Mw,0,36.224,-120.232,6.7,5.2,4.3,22.1,1,1,334,75,5.2,4.3,161,36.21,-120.2322,4.1,,,,,,,,,,,,,,,,,,,,,,,,,,,,,,,,,,,,,,,,,,,,,,,,,,,,,,,,,,,,,,,,,,,,,,,,,,,,,,,,,,,,,,,,,,,,,,,,,,,
86,Taiwan SMART1(25),6.50,MS,0,23.9382,122.3167,18,22.8,14.7,335.7,1,1,73,80,22.8,14.7,80,23.9289,122.2337,9.6,,,,,,,,,,,,,,,,,,,,,,,,,,,,,,,,,,,,,,,,,,,,,,,,,,,,,,,,,,,,,,,,,,,,,,,,,,,,,,,,,,,,,,,,,,,,,,,,,,,
87,"Borah Peak, ID-01",6.88,Mw,1,43.967,-113.9,16,41,20.3,832.5,1,1,152,52,41,20.3,-70,44.3403,-114.0013,0,,,,,,,,,,,,,,,,,,,,,,,,,,,,,,,,,,,,,,,,,,,,,,,,,,,,,,,,,,,,,,,,,,,,,,,,,,,,,,,,,,,,,,,,,,,,,,,,,,,
88,"Borah Peak, ID-02",5.10,Mw,0,44.239,-114.07,10,3.5,3.4,12.1,1,1,309,51,3.5,3.4,-65,44.2156,-114.0691,7.6,,,,,,,,,,,,,,,,,,,,,,,,,,,,,,,,,,,,,,,,,,,,,,,,,,,,,,,,,,,,,,,,,,,,,,,,,,,,,,,,,,,,,,,,,,,,,,,,,,,
89,New Zealand-01,5.50,ML,0,-38.92,175.78,9,12.5,6.4,79.7,1,1,15.5,53,12.5,6.4,-90,-38.9786,175.7193,4.6,,,,,,,,,,,,,,,,,,,,,,,,,,,,,,,,,,,,,,,,,,,,,,,,,,,,,,,,,,,,,,,,,,,,,,,,,,,,,,,,,,,,,,,,,,,,,,,,,,,
90,Morgan Hill,6.19,Mw,1,37.306,-121.695,8.5,27,11.5,310.5,1,1,148,90,27,11.5,180,37.3098,-121.6979,0.5,,,,,,,,,,,,,,,,,,,,,,,,,,,,,,,,,,,,,,,,,,,,,,,,,,,,,,,,,,,,,,,,,,,,,,,,,,,,,,,,,,,,,,,,,,,,,,,,,,,
91,"Lazio-Abruzzo, Italy",5.30,Mw,1,41.71,13.902,14,6,8.1,48.6,1,1,123,48,6,8.1,-96,41.7653,13.9071,8,,,,,,,,,,,,,,,,,,,,,,,,,,,,,,,,,,,,,,,,,,,,,,,,,,,,,,,,,,,,,,,,,,,,,,,,,,,,,,,,,,,,,,,,,,,,,,,,,,,
92,"Veroia, Greece",5.00,MS,0,40.68,21.9,5,5.5,3.5,19.2,1,1,194.2,55,5.5,3.5,-90,40.6945,21.9193,3.3,,,,,,,,,,,,,,,,,,,,,,,,,,,,,,,,,,,,,,,,,,,,,,,,,,,,,,,,,,,,,,,,,,,,,,,,,,,,,,,,,,,,,,,,,,,,,,,,,,,
93,"Pelekanada, Greece",5.82,MS,0,36.96,23.6,81,4.1,1.9,7.8,1,1,354.2,55,4.1,1.9,-90,36.9376,23.5915,79.6,,,,,,,,,,,,,,,,,,,,,,,,,,,,,,,,,,,,,,,,,,,,,,,,,,,,,,,,,,,,,,,,,,,,,,,,,,,,,,,,,,,,,,,,,,,,,,,,,,,
94,Bishop (Rnd Val),5.80,Mw,0,37.46,-118.59,9,4.6,6.1,27.8,1,1,207.9,86,4.6,6.1,10,37.481,-118.5723,4.9,,,,,,,,,,,,,,,,,,,,,,,,,,,,,,,,,,,,,,,,,,,,,,,,,,,,,,,,,,,,,,,,,,,,,,,,,,,,,,,,,,,,,,,,,,,,,,,,,,,
95,Taiwan SMART1(33),5.80,MS,0,24.573,122.1947,3.3,7.1,4.4,31.7,1,1,248.9,61.5,7.1,4.4,-90,24.569,122.2301,0.2,,,,,,,,,,,,,,,,,,,,,,,,,,,,,,,,,,,,,,,,,,,,,,,,,,,,,,,,,,,,,,,,,,,,,,,,,,,,,,,,,,,,,,,,,,,,,,,,,,,
96,"Drama, Greece",5.20,Mw,1,41.2253,23.9951,10.8,10,12,120,1,1,235,72,10,12,-121,41.2124,24.0435,0,,,,,,,,,,,,,,,,,,,,,,,,,,,,,,,,,,,,,,,,,,,,,,,,,,,,,,,,,,,,,,,,,,,,,,,,,,,,,,,,,,,,,,,,,,,,,,,,,,,
97,"Nahanni, Canada",6.76,Mw,1,62.187,-124.243,8,33.6,17.6,591.5,1,1,160,25,33.6,17.6,90,62.3816,-124.1314,2,,,,,,,,,,,,,,,,,,,,,,,,,,,,,,,,,,,,,,,,,,,,,,,,,,,,,,,,,,,,,,,,,,,,,,,,,,,,,,,,,,,,,,,,,,,,,,,,,,,
98,Hollister-04,5.45,Mw,0,36.804,-121.2847,8.7,2.9,3.9,11.2,1,1,350,90,2.9,3.9,165,36.7985,-121.2835,5.2,,,,,,,,,,,,,,,,,,,,,,,,,,,,,,,,,,,,,,,,,,,,,,,,,,,,,,,,,,,,,,,,,,,,,,,,,,,,,,,,,,,,,,,,,,,,,,,,,,,
99,Mt. Lewis,5.60,Mw,0,37.4788,-121.6858,9.2,7.8,4.9,38,1,1,355,80,7.8,4.9,175,37.4475,-121.6897,5.5,,,,,,,,,,,,,,,,,,,,,,,,,,,,,,,,,,,,,,,,,,,,,,,,,,,,,,,,,,,,,,,,,,,,,,,,,,,,,,,,,,,,,,,,,,,,,,,,,,,
100,Taiwan SMART1(40),6.32,Mw,0,24.0817,121.5915,15.8,13.8,11.8,163.5,1,1,43,57,13.8,11.8,100,24.0682,121.5453,12.1,,,,,,,,,,,,,,,,,,,,,,,,,,,,,,,,,,,,,,,,,,,,,,,,,,,,,,,,,,,,,,,,,,,,,,,,,,,,,,,,,,,,,,,,,,,,,,,,,,,
101,N. Palm Springs,6.06,Mw,1,34,-116.6117,11,20,13.3,266.1,1,1,287,46,20,13.3,150,33.9172,-116.5368,4,,,,,,,,,,,,,,,,,,,,,,,,,,,,,,,,,,,,,,,,,,,,,,,,,,,,,,,,,,,,,,,,,,,,,,,,,,,,,,,,,,,,,,,,,,,,,,,,,,,
102,Chalfant Valley-01,5.77,Mw,1,37.576,-118.448,6.7,7.5,6,45,1,1,48,90,7.5,6,20,37.5625,-118.4667,2,,,,,,,,,,,,,,,,,,,,,,,,,,,,,,,,,,,,,,,,,,,,,,,,,,,,,,,,,,,,,,,,,,,,,,,,,,,,,,,,,,,,,,,,,,,,,,,,,,,
103,Chalfant Valley-02,6.19,Mw,1,37.5383,-118.443,10,15,8,119.9,1,1,148,55,15,8,-163,37.625,-118.4542,4,,,,,,,,,,,,,,,,,,,,,,,,,,,,,,,,,,,,,,,,,,,,,,,,,,,,,,,,,,,,,,,,,,,,,,,,,,,,,,,,,,,,,,,,,,,,,,,,,,,
104,Chalfant Valley-03,5.65,Mw,0,37.569,-118.525,5,4.5,7,31.6,1,1,173.7,90,4.5,7,0,37.5938,-118.5285,2.3,,,,,,,,,,,,,,,,,,,,,,,,,,,,,,,,,,,,,,,,,,,,,,,,,,,,,,,,,,,,,,,,,,,,,,,,,,,,,,,,,,,,,,,,,,,,,,,,,,,
105,Chalfant Valley-04,5.44,Mw,0,37.592,-118.473,9.2,5.6,4.9,27.5,1,1,345.1,90,5.6,4.9,160,37.5685,-118.4651,6.1,,,,,,,,,,,,,,,,,,,,,,,,,,,,,,,,,,,,,,,,,,,,,,,,,,,,,,,,,,,,,,,,,,,,,,,,,,,,,,,,,,,,,,,,,,,,,,,,,,,
106,"Kalamata, Greece-01",6.20,MS,0,37.1,22.19,5,9,8.1,73.5,1,1,313.4,55,9,8.1,-90,37.0753,22.1653,0,,,,,,,,,,,,,,,,,,,,,,,,,,,,,,,,,,,,,,,,,,,,,,,,,,,,,,,,,,,,,,,,,,,,,,,,,,,,,,,,,,,,,,,,,,,,,,,,,,,
107,"Kalamata, Greece-02",5.40,MS,0,37.08,22.07,5,6.3,3.9,24.9,1,1,332.3,55,6.3,3.9,-90,37.0486,22.0693,2.6,,,,,,,,,,,,,,,,,,,,,,,,,,,,,,,,,,,,,,,,,,,,,,,,,,,,,,,,,,,,,,,,,,,,,,,,,,,,,,,,,,,,,,,,,,,,,,,,,,,
108,San Salvador,5.80,Mw,1,13.633,-89.2,10.9,8,7,56,1,1,32,85,8,7,0,13.6198,-89.2132,5.9,,,,,,,,,,,,,,,,,,,,,,,,,,,,,,,,,,,,,,,,,,,,,,,,,,,,,,,,,,,,,,,,,,,,,,,,,,,,,,,,,,,,,,,,,,,,,,,,,,,
109,Taiwan SMART1(45),7.30,Mw,0,23.9918,121.8332,15,50.6,23.9,1208.9,1,1,43,57,50.6,23.9,100,23.8528,121.5608,0,,,,,,,,,,,,,,,,,,,,,,,,,,,,,,,,,,,,,,,,,,,,,,,,,,,,,,,,,,,,,,,,,,,,,,,,,,,,,,,,,,,,,,,,,,,,,,,,,,,
110,Baja California,5.50,Mw,0,32.388,-115.305,6,4.2,3.6,14.9,1,1,112,88,4.2,3.6,160,32.3982,-115.3317,2.8,,,,,,,,,,,,,,,,,,,,,,,,,,,,,,,,,,,,,,,,,,,,,,,,,,,,,,,,,,,,,,,,,,,,,,,,,,,,,,,,,,,,,,,,,,,,,,,,,,,
111,New Zealand-02,6.60,Mw,1,-37.92,176.76,6.4,13,10.2,132.6,1,1,235,39,13,10.2,-110,-37.9772,176.8127,0,,,,,,,,,,,,,,,,,,,,,,,,,,,,,,,,,,,,,,,,,,,,,,,,,,,,,,,,,,,,,,,,,,,,,,,,,,,,,,,,,,,,,,,,,,,,,,,,,,,
112,New Zealand-03,5.80,Mw,0,-37.9063,176.7293,11,6,8.1,48.5,1,1,141.1,55,6,8.1,-90,-37.8665,176.7543,4.6,,,,,,,,,,,,,,,,,,,,,,,,,,,,,,,,,,,,,,,,,,,,,,,,,,,,,,,,,,,,,,,,,,,,,,,,,,,,,,,,,,,,,,,,,,,,,,,,,,,
113,Whittier Narrows-01,5.99,Mw,1,34.0493,-118.081,14.6,10,6,60,1,1,280,30,10,6,150,34.04,-118.0278,14.5,,,,,,,,,,,,,,,,,,,,,,,,,,,,,,,,,,,,,,,,,,,,,,,,,,,,,,,,,,,,,,,,,,,,,,,,,,,,,,,,,,,,,,,,,,,,,,,,,,,
114,Whittier Narrows-02,5.27,Mw,0,34.06,-118.1035,13.3,4.1,3.6,14.8,1,1,170,70,4.1,3.6,140,34.0802,-118.0985,11,,,,,,,,,,,,,,,,,,,,,,,,,,,,,,,,,,,,,,,,,,,,,,,,,,,,,,,,,,,,,,,,,,,,,,,,,,,,,,,,,,,,,,,,,,,,,,,,,,,
115,Superstition Hills-01,6.22,Mw,1,33.0817,-115.795,10,20,10,200,1,1,40,90,20,10,0,33.0817,-115.795,0,,,,,,,,,,,,,,,,,,,,,,,,,,,,,,,,,,,,,,,,,,,,,,,,,,,,,,,,,,,,,,,,,,,,,,,,,,,,,,,,,,,,,,,,,,,,,,,,,,,
116,Superstition Hills-02,6.54,Mw,1,33.0222,-115.8314,9,20,12,240,1,1,127,90,20,12,180,33.033,-115.8485,0,,,,,,,,,,,,,,,,,,,,,,,,,,,,,,,,,,,,,,,,,,,,,,,,,,,,,,,,,,,,,,,,,,,,,,,,,,,,,,,,,,,,,,,,,,,,,,,,,,,
117,"Spitak, Armenia",6.77,Mw,0,40.91,44.25,6,29.5,29.1,858.3,1,1,302,59,29.5,29.1,143,40.7986,44.4045,0,,,,,,,,,,,,,,,,,,,,,,,,,,,,,,,,,,,,,,,,,,,,,,,,,,,,,,,,,,,,,,,,,,,,,,,,,,,,,,,,,,,,,,,,,,,,,,,,,,,
118,Loma Prieta,6.93,Mw,1,37.0407,-121.8829,17.5,40,18,719.8,1,1,128,70,40,18,140,37.187,-122.0259,3.9,,,,,,,,,,,,,,,,,,,,,,,,,,,,,,,,,,,,,,,,,,,,,,,,,,,,,,,,,,,,,,,,,,,,,,,,,,,,,,,,,,,,,,,,,,,,,,,,,,,
119,"Griva, Greece",6.10,Mw,1,40.9692,22.3757,9.4,17.5,16,280,1,1,54,47,17.5,16,-103,41.0332,22.3141,0,,,,,,,,,,,,,,,,,,,,,,,,,,,,,,,,,,,,,,,,,,,,,,,,,,,,,,,,,,,,,,,,,,,,,,,,,,,,,,,,,,,,,,,,,,,,,,,,,,,
120,"Georgia, USSR",6.20,MS,0,42.44,44.03,6,24.4,9.3,225.5,1,1,325,30,24.4,9.3,90,42.2743,44.0937,2.4,,,,,,,,,,,,,,,,,,,,,,,,,,,,,,,,,,,,,,,,,,,,,,,,,,,,,,,,,,,,,,,,,,,,,,,,,,,,,,,,,,,,,,,,,,,,,,,,,,,
121,"Erzican, Turkey",6.69,Mw,1,39.705,39.587,9,29,8,232.1,1,1,122,63,29,8,-164,39.7924,39.465,3.6,,,,,,,,,,,,,,,,,,,,,,,,,,,,,,,,,,,,,,,,,,,,,,,,,,,,,,,,,,,,,,,,,,,,,,,,,,,,,,,,,,,,,,,,,,,,,,,,,,,
122,"Roermond, Netherlands",5.30,Mw,0,51.17,5.925,14.6,6.1,5.1,31,1,1,124,68,6.1,5.1,-94,51.2029,5.8954,9.9,,,,,,,,,,,,,,,,,,,,,,,,,,,,,,,,,,,,,,,,,,,,,,,,,,,,,,,,,,,,,,,,,,,,,,,,,,,,,,,,,,,,,,,,,,,,,,,,,,,
123,Cape Mendocino,7.01,Mw,1,40.327,-124.233,9.5,20,28,559.7,1,1,350,14,20,28,105,40.221,-124.417,5.2,,,,,,,,,,,,,,,,,,,,,,,,,,,,,,,,,,,,,,,,,,,,,,,,,,,,,,,,,,,,,,,,,,,,,,,,,,,,,,,,,,,,,,,,,,,,,,,,,,,
124,New Zealand-04,5.70,ML,0,-37.5804,176.8749,5,11.3,7.8,87.9,1,1,166,53,11.3,7.8,-90,-37.508,176.8962,0,,,,,,,,,,,,,,,,,,,,,,,,,,,,,,,,,,,,,,,,,,,,,,,,,,,,,,,,,,,,,,,,,,,,,,,,,,,,,,,,,,,,,,,,,,,,,,,,,,,
125,Landers,7.28,Mw,1,34.2,-116.436,7,71.7,15,1075.8,7,1,356.1,90,15.7,15,180,34.147,-116.432,0,2,8.6,90,3.4,15,180,34.288,-116.4435,0,3,338.5,90,17.7,15,180,34.318,-116.438,0,4,358.8,90,3.3,15,180,34.4657,-116.5086,0,5,325,90,11.1,15,180,34.4951,-116.5094,0,6,295.7,90,4.7,15,180,34.5767,-116.5788,0,7,319.8,90,15.9,15,180,34.595,-116.6252,0,,,,,,,,,,,,,,,,,,,,,,,,,,,,,,,,,,,,,,,,,,,,,
126,Big Bear-01,6.46,Mw,0,34.21,-116.83,13,22.4,9.5,213.3,1,1,55,85,22.4,9.5,-10,34.1605,-116.9303,3.9,,,,,,,,,,,,,,,,,,,,,,,,,,,,,,,,,,,,,,,,,,,,,,,,,,,,,,,,,,,,,,,,,,,,,,,,,,,,,,,,,,,,,,,,,,,,,,,,,,,
127,Northridge-01,6.69,Mw,1,34.2057,-118.5539,17.5,18,24,432.1,1,1,122,40,18,24,103,34.387,-118.598,5,,,,,,,,,,,,,,,,,,,,,,,,,,,,,,,,,,,,,,,,,,,,,,,,,,,,,,,,,,,,,,,,,,,,,,,,,,,,,,,,,,,,,,,,,,,,,,,,,,,
128,Double Springs,5.90,Mw,1,38.823,-119.632,5,10,7,70,1,1,21,81,10,7,-25,38.7401,-119.6767,3,,,,,,,,,,,,,,,,,,,,,,,,,,,,,,,,,,,,,,,,,,,,,,,,,,,,,,,,,,,,,,,,,,,,,,,,,,,,,,,,,,,,,,,,,,,,,,,,,,,
129a,"Kobe, Japan",6.90,Mw,1,34.596,135.011,17.9,40,20,799.8,1,1,230,85,40,20,180,34.8159,135.3573,0.2,,,,,,,,,,,,,,,,,,,,,,,,,,,,,,,,,,,,,,,,,,,,,,,,,,,,,,,,,,,,,,,,,,,,,,,,,,,,,,,,,,,,,,,,,,,,,,,,,,,
129b,"Kobe, Japan",0.00,Mw,1,34.587,135.021,17.9,20,20,400.1,1,1,45,80,20,20,180,34.4793,134.843,0.2,,,,,,,,,,,,,,,,,,,,,,,,,,,,,,,,,,,,,,,,,,,,,,,,,,,,,,,,,,,,,,,,,,,,,,,,,,,,,,,,,,,,,,,,,,,,,,,,,,,
130,"Kozani, Greece-01",6.40,Mw,1,40.1569,21.6746,12.6,27,15.7,424,1,1,253,43,27,15.7,-95,40.08,21.77,2.8,,,,,,,,,,,,,,,,,,,,,,,,,,,,,,,,,,,,,,,,,,,,,,,,,,,,,,,,,,,,,,,,,,,,,,,,,,,,,,,,,,,,,,,,,,,,,,,,,,,
131,"Kozani, Greece-02",5.10,Mw,0,40.083,21.591,8.7,4.3,3.5,15.2,1,1,59,33,4.3,3.5,-118,40.0937,21.5524,6.9,,,,,,,,,,,,,,,,,,,,,,,,,,,,,,,,,,,,,,,,,,,,,,,,,,,,,,,,,,,,,,,,,,,,,,,,,,,,,,,,,,,,,,,,,,,,,,,,,,,
132,"Kozani, Greece-03",5.30,Mw,0,40.074,21.626,5.4,4.8,6,28.6,1,1,57.9,42,4.8,6,-90,40.0722,21.5729,3.4,,,,,,,,,,,,,,,,,,,,,,,,,,,,,,,,,,,,,,,,,,,,,,,,,,,,,,,,,,,,,,,,,,,,,,,,,,,,,,,,,,,,,,,,,,,,,,,,,,,
133,"Kozani, Greece-04",5.10,Mw,0,40.054,21.58,6.8,4.2,3.8,15.9,1,1,265,48,4.2,3.8,-56,40.0349,21.6114,4.2,,,,,,,,,,,,,,,,,,,,,,,,,,,,,,,,,,,,,,,,,,,,,,,,,,,,,,,,,,,,,,,,,,,,,,,,,,,,,,,,,,,,,,,,,,,,,,,,,,,
134,"Dinar, Turkey",6.40,Mw,1,38.06,30.15,5,12.6,13.3,167.5,1,1,130,45,12.6,13.3,-94,38.1552,30.0952,0,,,,,,,,,,,,,,,,,,,,,,,,,,,,,,,,,,,,,,,,,,,,,,,,,,,,,,,,,,,,,,,,,,,,,,,,,,,,,,,,,,,,,,,,,,,,,,,,,,,
135,Gulf of Aqaba,7.20,Mw,1,28.76,34.66,12.5,54,25,1349.8,1,1,201,78,54,25,0,29.1715,34.8679,1,,,,,,,,,,,,,,,,,,,,,,,,,,,,,,,,,,,,,,,,,,,,,,,,,,,,,,,,,,,,,,,,,,,,,,,,,,,,,,,,,,,,,,,,,,,,,,,,,,,
136,"Kocaeli, Turkey",7.35,Mw,1,40.748,29.99,16,137.5,20.3,2788.4,12,1,270,80,4,20.3,180,40.761,31.0019,0,2,272.3,80,1.3,20.3,180,40.7614,30.9545,0,3,245.2,80,28,20.3,180,40.762,30.939,0,4,329.9,80,4.2,20.3,180,40.6585,30.6364,0,5,275.4,80,28,20.3,180,40.691,30.612,0,6,319.9,80,1,20.3,180,40.716,30.2817,0,7,269.8,80,28,20.3,180,40.723,30.274,0,8,327.4,80,0.5,20.3,180,40.7225,29.942,0,9,270.8,80,9,20.3,180,40.726,29.939,0,10,262.5,80,20,20.3,180,40.727,29.832,0,11,303.2,80,5.5,20.3,180,40.703,29.597,0,12,262.5,80,8,20.3,180,40.73,29.542,0
137,"Chi-Chi, Taiwan-01",7.62,Mw,1,23.85,120.82,8,88,37,3462,9,1,34.6,30,11.7,40,55,23.6253,120.6349,0,2,0.7,34,23.9,35.8,55,23.7122,120.7001,0,3,330.2,45,4,28.3,55,23.9269,120.7029,0,4,7.1,32,11.6,37.7,55,23.9581,120.6833,0,5,50.5,30,3.8,40,55,24.0613,120.6972,0,6,0.7,30,16.8,40,55,24.083,120.726,0,7,30.2,28,5.8,42.6,55,24.234,120.728,0,8,81.9,45,6.7,28.3,55,24.2794,120.757,0,9,19.4,30,3.7,40,55,24.2879,120.8222,0,,,,,,,,,,,,,,,,,,,,,,,,,,,
138,Duzce,7.14,Mw,1,40.8345,31.1346,14,46.8,20,949.4,4,1,278.6,65,16.5,20,182,40.756,31.4679,0,2,271.1,65,8.9,20,182,40.7787,31.2742,0,3,254.2,65,9.5,20,182,40.7804,31.1686,0,4,269.7,65,11.9,20,182,40.7571,31.0598,0,,,,,,,,,,,,,,,,,,,,,,,,,,,,,,,,,,,,,,,,,,,,,,,,,,,,,,,,,,,,,,,,,,,,,,,,
139,Stone Canyon,4.81,Mw,0,36.569,-121.301,8,3,3.7,11.1,1,1,315,67,3,3.7,-136,36.5557,-121.2976,6,,,,,,,,,,,,,,,,,,,,,,,,,,,,,,,,,,,,,,,,,,,,,,,,,,,,,,,,,,,,,,,,,,,,,,,,,,,,,,,,,,,,,,,,,,,,,,,,,,,
140,"Sitka, Alaska",7.68,Mw,1,56.77,-135.784,15,180,15,2700,1,1,347,90,180,15,180,56.45,-135.65,0,,,,,,,,,,,,,,,,,,,,,,,,,,,,,,,,,,,,,,,,,,,,,,,,,,,,,,,,,,,,,,,,,,,,,,,,,,,,,,,,,,,,,,,,,,,,,,,,,,,
141,"Caldiran, Turkey",7.21,Mw,1,39.015,44,10,55,18,990,1,1,290,90,55,18,180,38.986,44.103,2,,,,,,,,,,,,,,,,,,,,,,,,,,,,,,,,,,,,,,,,,,,,,,,,,,,,,,,,,,,,,,,,,,,,,,,,,,,,,,,,,,,,,,,,,,,,,,,,,,,
142,"St Elias, Alaska",7.54,Mw,1,60.64,-141.59,12.2,56.1,70.4,3948,1,1,250,10,56.1,70.4,90,60.214,-140.24,0,,,,,,,,,,,,,,,,,,,,,,,,,,,,,,,,,,,,,,,,,,,,,,,,,,,,,,,,,,,,,,,,,,,,,,,,,,,,,,,,,,,,,,,,,,,,,,,,,,,
143,Upland,5.63,Mw,0,34.1437,-117.6973,4.5,13.3,9.8,131.1,1,1,216,77,13.3,9.8,5,34.2102,-117.6274,0.8,,,,,,,,,,,,,,,,,,,,,,,,,,,,,,,,,,,,,,,,,,,,,,,,,,,,,,,,,,,,,,,,,,,,,,,,,,,,,,,,,,,,,,,,,,,,,,,,,,,
144,"Manjil, Iran",7.37,Mw,1,36.8358,49.3918,16,71.6,16,1147.2,7,1,298.4,88,9,16,-9,36.688,49.831,0,2,279.2,88,6.8,16,-9,36.727,49.742,0,3,304.5,88,10.2,16,-9,36.737,49.667,0,4,277.5,88,10.1,16,-9,36.789,49.573,0,5,310.1,88,4.7,16,-9,36.801,49.461,0,6,276.6,88,16.6,16,-9,36.828,49.421,0,7,292,88,14.3,16,-9,36.845,49.236,0,,,,,,,,,,,,,,,,,,,,,,,,,,,,,,,,,,,,,,,,,,,,,
145,Sierra Madre,5.61,Mw,1,34.2591,-118.001,12,4.3,3.9,16.8,1,1,242,50,4.3,3.9,82,34.248,-117.987,10,,,,,,,,,,,,,,,,,,,,,,,,,,,,,,,,,,,,,,,,,,,,,,,,,,,,,,,,,,,,,,,,,,,,,,,,,,,,,,,,,,,,,,,,,,,,,,,,,,,
146,"Joshua Tree, CA",6.10,Mw,1,33.96,-116.3167,12.4,8,10.5,84,1,1,340,90,8,10.5,180,33.9558,-116.3149,5,,,,,,,,,,,,,,,,,,,,,,,,,,,,,,,,,,,,,,,,,,,,,,,,,,,,,,,,,,,,,,,,,,,,,,,,,,,,,,,,,,,,,,,,,,,,,,,,,,,
147,Northridge-02,6.05,Mw,0,34.2748,-118.4925,6,10.3,8.5,86.7,1,1,6.1,40,10.3,8.5,90,34.2309,-118.5266,3.8,,,,,,,,,,,,,,,,,,,,,,,,,,,,,,,,,,,,,,,,,,,,,,,,,,,,,,,,,,,,,,,,,,,,,,,,,,,,,,,,,,,,,,,,,,,,,,,,,,,
148,Northridge-03,5.20,Mw,0,34.3397,-118.6143,6,4.1,3.2,12.9,1,1,119,40,4.1,3.2,90,34.3532,-118.6268,5.4,,,,,,,,,,,,,,,,,,,,,,,,,,,,,,,,,,,,,,,,,,,,,,,,,,,,,,,,,,,,,,,,,,,,,,,,,,,,,,,,,,,,,,,,,,,,,,,,,,,
149,Northridge-04,5.93,Mw,0,34.3263,-118.6983,9.8,8.3,7.1,59.2,1,1,330,40,8.3,7.1,148,34.2806,-118.7049,7.3,,,,,,,,,,,,,,,,,,,,,,,,,,,,,,,,,,,,,,,,,,,,,,,,,,,,,,,,,,,,,,,,,,,,,,,,,,,,,,,,,,,,,,,,,,,,,,,,,,,
150,Northridge-05,5.13,Mw,0,34.3765,-118.6982,11.3,4.4,3.4,14.7,1,1,303.9,54,4.4,3.4,145,34.3594,-118.6884,9.9,,,,,,,,,,,,,,,,,,,,,,,,,,,,,,,,,,,,,,,,,,,,,,,,,,,,,,,,,,,,,,,,,,,,,,,,,,,,,,,,,,,,,,,,,,,,,,,,,,,
151,Northridge-06,5.28,Mw,0,34.2313,-118.475,13.1,4.1,4.8,19.6,1,1,308,40,4.1,4.8,106,34.2025,-118.4746,11,,,,,,,,,,,,,,,,,,,,,,,,,,,,,,,,,,,,,,,,,,,,,,,,,,,,,,,,,,,,,,,,,,,,,,,,,,,,,,,,,,,,,,,,,,,,,,,,,,,
152,"Little Skull Mtn,NV",5.65,Mw,1,36.728,-116.286,12,6,6,36,1,1,60,70,6,6,-70,36.744,-116.2975,6.4,,,,,,,,,,,,,,,,,,,,,,,,,,,,,,,,,,,,,,,,,,,,,,,,,,,,,,,,,,,,,,,,,,,,,,,,,,,,,,,,,,,,,,,,,,,,,,,,,,,
153,Northwest China-01,5.90,Mw,0,39.5444,76.8794,23.1,12,5.9,71,1,1,161,68,12,5.9,-171,39.5942,76.8779,18.9,,,,,,,,,,,,,,,,,,,,,,,,,,,,,,,,,,,,,,,,,,,,,,,,,,,,,,,,,,,,,,,,,,,,,,,,,,,,,,,,,,,,,,,,,,,,,,,,,,,
154,Northwest China-02,5.93,Mw,0,39.5409,77.0021,31,8.1,13.6,110.2,1,1,203,30,8.1,13.6,-82,39.5369,77.11,26,,,,,,,,,,,,,,,,,,,,,,,,,,,,,,,,,,,,,,,,,,,,,,,,,,,,,,,,,,,,,,,,,,,,,,,,,,,,,,,,,,,,,,,,,,,,,,,,,,,
155,Northwest China-03,6.10,Mw,0,39.5557,76.9477,20,14.4,11.8,169.2,1,1,21,45,14.4,11.8,-89,39.5033,76.8549,14.6,,,,,,,,,,,,,,,,,,,,,,,,,,,,,,,,,,,,,,,,,,,,,,,,,,,,,,,,,,,,,,,,,,,,,,,,,,,,,,,,,,,,,,,,,,,,,,,,,,,
156,Northwest China-04,5.80,Mw,0,39.62,76.9819,22.4,7.6,8,61.1,1,1,55,43,7.6,8,-46,39.6449,76.9095,17,,,,,,,,,,,,,,,,,,,,,,,,,,,,,,,,,,,,,,,,,,,,,,,,,,,,,,,,,,,,,,,,,,,,,,,,,,,,,,,,,,,,,,,,,,,,,,,,,,,
157,San Juan Bautista,5.17,Mw,0,36.7533,-121.4622,9.1,3,3.1,9.1,1,1,129,85,3,3.1,-171,36.7662,-121.4785,6.8,,,,,,,,,,,,,,,,,,,,,,,,,,,,,,,,,,,,,,,,,,,,,,,,,,,,,,,,,,,,,,,,,,,,,,,,,,,,,,,,,,,,,,,,,,,,,,,,,,,
158a,Hector Mine,7.13,Mw,1,34.5981,-116.2645,14.8,30,16.2,486.1,1,1,346,85,30,16.2,179,34.464,-116.238,0,,,,,,,,,,,,,,,,,,,,,,,,,,,,,,,,,,,,,,,,,,,,,,,,,,,,,,,,,,,,,,,,,,,,,,,,,,,,,,,,,,,,,,,,,,,,,,,,,,,
158b,Hector Mine,0.00,Mw,1,34.6094,-116.2506,14.8,21,16.2,340.2,1,1,322,75,21,16.2,179,34.57,-116.268,0,,,,,,,,,,,,,,,,,,,,,,,,,,,,,,,,,,,,,,,,,,,,,,,,,,,,,,,,,,,,,,,,,,,,,,,,,,,,,,,,,,,,,,,,,,,,,,,,,,,
158c,Hector Mine,0.00,Mw,1,34.4719,-116.2299,14.8,18,16.2,291.6,1,1,322,85,18,16.2,179,34.378,-116.159,0,,,,,,,,,,,,,,,,,,,,,,,,,,,,,,,,,,,,,,,,,,,,,,,,,,,,,,,,,,,,,,,,,,,,,,,,,,,,,,,,,,,,,,,,,,,,,,,,,,,
160,Yountville,5.00,Mw,0,38.3788,-122.4127,10.1,3.5,3.2,10.9,1,1,150,90,3.5,3.2,170,38.3933,-122.4234,7.8,,,,,,,,,,,,,,,,,,,,,,,,,,,,,,,,,,,,,,,,,,,,,,,,,,,,,,,,,,,,,,,,,,,,,,,,,,,,,,,,,,,,,,,,,,,,,,,,,,,
161,Big Bear-02,4.53,Mw,0,34.2895,-116.9458,9.1,1.8,1.5,2.6,1,1,25,90,1.8,1.5,11,34.2819,-116.9501,7.9,,,,,,,,,,,,,,,,,,,,,,,,,,,,,,,,,,,,,,,,,,,,,,,,,,,,,,,,,,,,,,,,,,,,,,,,,,,,,,,,,,,,,,,,,,,,,,,,,,,
162,"Mohawk Val, Portola",5.17,Mw,0,39.8105,-120.6165,4,6.6,5.2,34.3,1,1,326,81,6.6,5.2,-173,39.7938,-120.6106,0,,,,,,,,,,,,,,,,,,,,,,,,,,,,,,,,,,,,,,,,,,,,,,,,,,,,,,,,,,,,,,,,,,,,,,,,,,,,,,,,,,,,,,,,,,,,,,,,,,,
163,Anza-02,4.92,Mw,0,33.5083,-116.5143,15.2,2.8,3.9,10.9,1,1,226.1,78,2.8,3.9,-32,33.5132,-116.4992,12.5,,,,,,,,,,,,,,,,,,,,,,,,,,,,,,,,,,,,,,,,,,,,,,,,,,,,,,,,,,,,,,,,,,,,,,,,,,,,,,,,,,,,,,,,,,,,,,,,,,,
164,Gulf of California,5.70,Mw,0,32.037,-114.906,10,4.6,5.5,25.1,1,1,122.9,59,4.6,5.5,-163,32.0694,-114.9287,6.9,,,,,,,,,,,,,,,,,,,,,,,,,,,,,,,,,,,,,,,,,,,,,,,,,,,,,,,,,,,,,,,,,,,,,,,,,,,,,,,,,,,,,,,,,,,,,,,,,,,
165,CA/Baja Border Area,5.31,Mw,0,32.3188,-115.3215,7,10.1,7.1,72.1,1,1,0,74,10.1,7.1,-23,32.2488,-115.33,4.2,,,,,,,,,,,,,,,,,,,,,,,,,,,,,,,,,,,,,,,,,,,,,,,,,,,,,,,,,,,,,,,,,,,,,,,,,,,,,,,,,,,,,,,,,,,,,,,,,,,
166,Gilroy,4.90,Mw,0,36.9667,-121.5987,10.1,2.4,3.7,9.1,1,1,301.8,84,2.4,3.7,-177,36.9612,-121.5926,7.9,,,,,,,,,,,,,,,,,,,,,,,,,,,,,,,,,,,,,,,,,,,,,,,,,,,,,,,,,,,,,,,,,,,,,,,,,,,,,,,,,,,,,,,,,,,,,,,,,,,
167,Yorba Linda,4.27,Mw,0,33.9173,-117.7758,7,1.4,1.5,2.1,1,1,32.9,88.3,1.4,1.5,13,33.9119,-117.7804,6,,,,,,,,,,,,,,,,,,,,,,,,,,,,,,,,,,,,,,,,,,,,,,,,,,,,,,,,,,,,,,,,,,,,,,,,,,,,,,,,,,,,,,,,,,,,,,,,,,,
168,"Nenana Mountain, Alaska",6.70,Mw,1,63.516,-148.11,4.2,30,15,450,1,1,263,90,30,15,179,63.5375,-147.7,0.1,,,,,,,,,,,,,,,,,,,,,,,,,,,,,,,,,,,,,,,,,,,,,,,,,,,,,,,,,,,,,,,,,,,,,,,,,,,,,,,,,,,,,,,,,,,,,,,,,,,
169a,"Denali, Alaska",7.90,Mw,1,63.542,-147.4444,8.9,45.1,24,852.5,3,1,214.8,32,5.2,24,90,63.5277,-146.969,0,2,238.3,32,15.2,24,90,63.4891,-147.029,0,3,268,32,24.7,24,90,63.4168,-147.289,0,,,,,,,,,,,,,,,,,,,,,,,,,,,,,,,,,,,,,,,,,,,,,,,,,,,,,,,,,,,,,,,,,,,,,,,,,,,,,,,,,
169b,"Denali, Alaska",7.90,Mw,1,63.5424,-146.9633,9.7,213.7,15,3217.3,8,1,302.3,80,10.4,15,171,62.8117,-143.267,0,2,297.1,80,24.6,15,171,62.8661,-143.434,0,3,295.8,80,56.4,15,171,62.9765,-143.854,0,4,289.2,80,34.2,15,171,63.2149,-144.842,0,5,298.1,80,22.7,15,171,63.3237,-145.481,0,6,286,80,16,15,171,63.4235,-145.879,0,7,279.9,80,39.5,15,171,63.4651,-146.187,0,8,271.5,80,9.9,15,171,63.5277,-146.969,0,,,,,,,,,,,,,,,,,,,,,,,,,,,,,,,,,,,,
169c,"Denali, Alaska",7.90,Mw,1,62.7917,-143.298,9.7,67.9,15,1019.2,5,1,318.9,90,11.6,15,171,62.3093,-142.539,0,2,2,90,4.1,15,171,62.3923,-142.675,0,3,315.7,90,23.7,15,171,62.4293,-142.667,0,4,310.1,90,14.7,15,171,62.5909,-142.968,0,5,329.9,90,13.7,15,171,62.6821,-143.177,0,,,,,,,,,,,,,,,,,,,,,,,,,,,,,,,,,,,,,,,,,,,,,,,,,,,,,,,,,,,,,,,
170,Big Bear City,4.92,Mw,0,34.31,-116.848,6.3,2.9,2.4,7.2,1,1,139.1,72,2.9,2.4,-174,34.3225,-116.8544,4.9,,,,,,,,,,,,,,,,,,,,,,,,,,,,,,,,,,,,,,,,,,,,,,,,,,,,,,,,,,,,,,,,,,,,,,,,,,,,,,,,,,,,,,,,,,,,,,,,,,,
171,"Chi-Chi, Taiwan-02",5.90,Mw,1,23.94,121.01,8,19,13,247,1,1,35,50,19,13,100,23.8878,120.9545,6.5,,,,,,,,,,,,,,,,,,,,,,,,,,,,,,,,,,,,,,,,,,,,,,,,,,,,,,,,,,,,,,,,,,,,,,,,,,,,,,,,,,,,,,,,,,,,,,,,,,,
172,"Chi-Chi, Taiwan-03",6.20,Mw,1,23.81,120.85,7.8,10,11,110,1,1,360,10,10,11,80,23.7605,120.7875,6.7,,,,,,,,,,,,,,,,,,,,,,,,,,,,,,,,,,,,,,,,,,,,,,,,,,,,,,,,,,,,,,,,,,,,,,,,,,,,,,,,,,,,,,,,,,,,,,,,,,,
173,"Chi-Chi, Taiwan-04",6.20,Mw,1,23.6,120.82,18,21.5,17.5,376.3,1,1,330,89,21.5,17.5,15,23.5014,120.8789,1.5,,,,,,,,,,,,,,,,,,,,,,,,,,,,,,,,,,,,,,,,,,,,,,,,,,,,,,,,,,,,,,,,,,,,,,,,,,,,,,,,,,,,,,,,,,,,,,,,,,,
174,"Chi-Chi, Taiwan-05",6.20,Mw,1,23.81,121.08,10,17.5,19,332.4,1,1,165,70,17.5,19,100,23.8987,121.0625,7.7,,,,,,,,,,,,,,,,,,,,,,,,,,,,,,,,,,,,,,,,,,,,,,,,,,,,,,,,,,,,,,,,,,,,,,,,,,,,,,,,,,,,,,,,,,,,,,,,,,,
175,"Chi-Chi, Taiwan-06",6.30,Mw,1,23.87,121.01,16,29,20,580,1,1,5,30,29,20,100,23.7439,120.8954,10,,,,,,,,,,,,,,,,,,,,,,,,,,,,,,,,,,,,,,,,,,,,,,,,,,,,,,,,,,,,,,,,,,,,,,,,,,,,,,,,,,,,,,,,,,,,,,,,,,,
176,"Tottori, Japan",6.60,Mw,1,35.275,133.35,12.5,38,20,760,1,1,330,90,38,20,0,35.1271,133.4544,0.5,,,,,,,,,,,,,,,,,,,,,,,,,,,,,,,,,,,,,,,,,,,,,,,,,,,,,,,,,,,,,,,,,,,,,,,,,,,,,,,,,,,,,,,,,,,,,,,,,,,
177,"San Simeon, CA",6.50,Mw,1,35.697,-121.085,8.5,33,10.2,335,1,1,292,52,33,10.2,97,35.5483,-120.7834,2,,,,,,,,,,,,,,,,,,,,,,,,,,,,,,,,,,,,,,,,,,,,,,,,,,,,,,,,,,,,,,,,,,,,,,,,,,,,,,,,,,,,,,,,,,,,,,,,,,,
178,"Bam, Iran",6.50,Mw,1,28.984,58.359,6,15,11.6,174.1,1,1,354.6,85.5,15,11.6,-177,28.9748,58.3563,1.4,,,,,,,,,,,,,,,,,,,,,,,,,,,,,,,,,,,,,,,,,,,,,,,,,,,,,,,,,,,,,,,,,,,,,,,,,,,,,,,,,,,,,,,,,,,,,,,,,,,
179,"Parkfield, CA",6.00,Mw,1,35.817,-120.365,8.1,40,8,320,1,1,141,89,40,8,-175,36.0269,-120.5739,2.5,,,,,,,,,,,,,,,,,,,,,,,,,,,,,,,,,,,,,,,,,,,,,,,,,,,,,,,,,,,,,,,,,,,,,,,,,,,,,,,,,,,,,,,,,,,,,,,,,,,
180,"Niigata, Japan",6.60,Mw,1,37.307,138.839,10.6,24,14,336,1,1,212,47,24,14,93,37.3768,138.9758,4,,,,,,,,,,,,,,,,,,,,,,,,,,,,,,,,,,,,,,,,,,,,,,,,,,,,,,,,,,,,,,,,,,,,,,,,,,,,,,,,,,,,,,,,,,,,,,,,,,,
181,"Ancona-01, Italy",4.00,ML,0,43.7,13.41,10,0.7,0.8,0.6,1,1,293.4,55,0.7,0.8,-90,43.695,13.4122,9.4,,,,,,,,,,,,,,,,,,,,,,,,,,,,,,,,,,,,,,,,,,,,,,,,,,,,,,,,,,,,,,,,,,,,,,,,,,,,,,,,,,,,,,,,,,,,,,,,,,,
182,"Ancona-02, Italy",4.60,ML,0,43.63,13.56,8,2.4,1.4,3.5,1,1,9,55,2.4,1.4,-90,43.6208,13.5477,6.8,,,,,,,,,,,,,,,,,,,,,,,,,,,,,,,,,,,,,,,,,,,,,,,,,,,,,,,,,,,,,,,,,,,,,,,,,,,,,,,,,,,,,,,,,,,,,,,,,,,
183,"Ancona-03, Italy",4.40,ML,0,43.73,13.38,8,1.4,1.8,2.6,1,1,211.4,55,1.4,1.8,-90,43.7345,13.3933,7.1,,,,,,,,,,,,,,,,,,,,,,,,,,,,,,,,,,,,,,,,,,,,,,,,,,,,,,,,,,,,,,,,,,,,,,,,,,,,,,,,,,,,,,,,,,,,,,,,,,,
184,"Ancona-04, Italy",4.10,ML,0,43.7,13.4,10,1.7,1.6,2.6,1,1,344,55,1.7,1.6,-90,43.6911,13.393,8.8,,,,,,,,,,,,,,,,,,,,,,,,,,,,,,,,,,,,,,,,,,,,,,,,,,,,,,,,,,,,,,,,,,,,,,,,,,,,,,,,,,,,,,,,,,,,,,,,,,,
185,"Ancona-05, Italy",4.30,ML,0,43.72,13.4,10,2,1.3,2.6,1,1,219.6,55,2,1.3,-90,43.7227,13.4117,9.2,,,,,,,,,,,,,,,,,,,,,,,,,,,,,,,,,,,,,,,,,,,,,,,,,,,,,,,,,,,,,,,,,,,,,,,,,,,,,,,,,,,,,,,,,,,,,,,,,,,
186,"Ancona-06, Italy",4.30,ML,0,43.7,13.43,5,1.7,1.3,2.3,1,1,121.6,55,1.7,1.3,-90,43.709,13.4255,4,,,,,,,,,,,,,,,,,,,,,,,,,,,,,,,,,,,,,,,,,,,,,,,,,,,,,,,,,,,,,,,,,,,,,,,,,,,,,,,,,,,,,,,,,,,,,,,,,,,
187,"Ancona-07, Italy",3.90,ML,0,43.7,13.4,10,0.9,0.9,0.8,1,1,238.1,55,0.9,0.9,-90,43.6983,13.4067,9.4,,,,,,,,,,,,,,,,,,,,,,,,,,,,,,,,,,,,,,,,,,,,,,,,,,,,,,,,,,,,,,,,,,,,,,,,,,,,,,,,,,,,,,,,,,,,,,,,,,,
188,"Ancona-08, Italy",3.90,ML,0,43.68,13.4,12,0.8,1,0.8,1,1,279.6,55,0.8,1,-90,43.6757,13.4034,11.4,,,,,,,,,,,,,,,,,,,,,,,,,,,,,,,,,,,,,,,,,,,,,,,,,,,,,,,,,,,,,,,,,,,,,,,,,,,,,,,,,,,,,,,,,,,,,,,,,,,
189,"Ancona-09, Italy",4.70,ML,0,43.65,13.61,8,2.7,2.5,6.7,1,1,17,90,2.7,2.5,0,43.6424,13.6068,6.2,,,,,,,,,,,,,,,,,,,,,,,,,,,,,,,,,,,,,,,,,,,,,,,,,,,,,,,,,,,,,,,,,,,,,,,,,,,,,,,,,,,,,,,,,,,,,,,,,,,
190,"Ancona-10, Italy",4.30,ML,0,43.63,13.5,8,1.4,2.1,3,1,1,270.9,55,1.4,2.1,-90,43.6231,13.5139,6.9,,,,,,,,,,,,,,,,,,,,,,,,,,,,,,,,,,,,,,,,,,,,,,,,,,,,,,,,,,,,,,,,,,,,,,,,,,,,,,,,,,,,,,,,,,,,,,,,,,,
191,"Ancona-11, Italy",4.00,ML,0,43.6,13.5,4,1.3,0.9,1.2,1,1,131.2,55,1.3,0.9,-90,43.6097,13.4936,3.3,,,,,,,,,,,,,,,,,,,,,,,,,,,,,,,,,,,,,,,,,,,,,,,,,,,,,,,,,,,,,,,,,,,,,,,,,,,,,,,,,,,,,,,,,,,,,,,,,,,
192,"Friuli (aftershock 1), Italy",5.20,Mw,0,46.245,13.269,9,6.1,3,18.5,1,1,59.5,40,6.1,3,90,46.2587,13.2546,7.4,,,,,,,,,,,,,,,,,,,,,,,,,,,,,,,,,,,,,,,,,,,,,,,,,,,,,,,,,,,,,,,,,,,,,,,,,,,,,,,,,,,,,,,,,,,,,,,,,,,
193,"Friuli (aftershock 2), Italy",4.90,Mw,0,46.258,12.985,6,2,3.2,6.6,1,1,344.7,40,2,3.2,90,46.2479,12.9784,5.3,,,,,,,,,,,,,,,,,,,,,,,,,,,,,,,,,,,,,,,,,,,,,,,,,,,,,,,,,,,,,,,,,,,,,,,,,,,,,,,,,,,,,,,,,,,,,,,,,,,
194,"Friuli (aftershock 3), Italy",4.50,Mw,0,46.27,13.03,7,2.6,3,7.8,1,1,68.2,40,2.6,3,90,46.28,13.0019,5.5,,,,,,,,,,,,,,,,,,,,,,,,,,,,,,,,,,,,,,,,,,,,,,,,,,,,,,,,,,,,,,,,,,,,,,,,,,,,,,,,,,,,,,,,,,,,,,,,,,,
195,"Friuli (aftershock 4), Italy",4.50,Mw,0,46.26,13.01,13,2.8,2.7,7.5,1,1,233.3,40,2.8,2.7,90,46.2639,13.0329,12.4,,,,,,,,,,,,,,,,,,,,,,,,,,,,,,,,,,,,,,,,,,,,,,,,,,,,,,,,,,,,,,,,,,,,,,,,,,,,,,,,,,,,,,,,,,,,,,,,,,,
196,"Friuli (aftershock 5), Italy",4.70,Mw,0,46.23,13,9,2.7,2.3,6.1,1,1,310.8,40,2.7,2.3,90,46.2191,12.9989,8.2,,,,,,,,,,,,,,,,,,,,,,,,,,,,,,,,,,,,,,,,,,,,,,,,,,,,,,,,,,,,,,,,,,,,,,,,,,,,,,,,,,,,,,,,,,,,,,,,,,,
197,"Friuli (aftershock 6), Italy",5.20,Mw,0,46.18,12.8,15,3.6,5,18,1,1,253.6,40,3.6,5,90,46.1817,12.8249,14.7,,,,,,,,,,,,,,,,,,,,,,,,,,,,,,,,,,,,,,,,,,,,,,,,,,,,,,,,,,,,,,,,,,,,,,,,,,,,,,,,,,,,,,,,,,,,,,,,,,,
198,"Friuli (aftershock 7), Italy",3.90,Mw,0,46.3,13,5,0.7,0.9,0.6,1,1,133.7,40,0.7,0.9,90,46.3035,13.0045,4.6,,,,,,,,,,,,,,,,,,,,,,,,,,,,,,,,,,,,,,,,,,,,,,,,,,,,,,,,,,,,,,,,,,,,,,,,,,,,,,,,,,,,,,,,,,,,,,,,,,,
199,"Friuli (aftershock 9), Italy",5.50,Mw,0,46.277,13.175,12,4.7,3.3,15.5,1,1,243.4,40,4.7,3.3,90,46.2737,13.205,10.9,,,,,,,,,,,,,,,,,,,,,,,,,,,,,,,,,,,,,,,,,,,,,,,,,,,,,,,,,,,,,,,,,,,,,,,,,,,,,,,,,,,,,,,,,,,,,,,,,,,
200,"Friuli (aftershock 10), Italy",4.80,Mw,0,46.306,13.146,8,2.4,3,7.1,1,1,219.7,40,2.4,3,90,46.3116,13.1796,6.7,,,,,,,,,,,,,,,,,,,,,,,,,,,,,,,,,,,,,,,,,,,,,,,,,,,,,,,,,,,,,,,,,,,,,,,,,,,,,,,,,,,,,,,,,,,,,,,,,,,
201,"Calabria, Italy",5.20,Mw,0,38.02,16.03,15,4.8,2.9,13.9,1,1,141.2,55,4.8,2.9,-90,38.0591,16.0114,12.9,,,,,,,,,,,,,,,,,,,,,,,,,,,,,,,,,,,,,,,,,,,,,,,,,,,,,,,,,,,,,,,,,,,,,,,,,,,,,,,,,,,,,,,,,,,,,,,,,,,
202,"Basso Tirreno, Italy",6.00,Mw,0,38.27,14.86,15,8.9,5.9,52.4,1,1,130.8,90,8.9,5.9,0,38.3004,14.8151,9.5,,,,,,,,,,,,,,,,,,,,,,,,,,,,,,,,,,,,,,,,,,,,,,,,,,,,,,,,,,,,,,,,,,,,,,,,,,,,,,,,,,,,,,,,,,,,,,,,,,,
205,"Umbria-01, Italy",4.10,ML,0,42.8,12.99,10,1.4,1.6,2.2,1,1,234.2,55,1.4,1.6,-90,42.7995,12.9993,9.3,,,,,,,,,,,,,,,,,,,,,,,,,,,,,,,,,,,,,,,,,,,,,,,,,,,,,,,,,,,,,,,,,,,,,,,,,,,,,,,,,,,,,,,,,,,,,,,,,,,
206,"Umbria-02, Italy",3.70,ML,0,42.75,13.1,5,1,2.1,2,1,1,232.7,55,1,2.1,-90,42.7469,13.1164,3.5,,,,,,,,,,,,,,,,,,,,,,,,,,,,,,,,,,,,,,,,,,,,,,,,,,,,,,,,,,,,,,,,,,,,,,,,,,,,,,,,,,,,,,,,,,,,,,,,,,,
208,"W of Cosenza, Italy",4.20,ML,0,39.283,16.15,12,2.7,1.9,4.9,1,1,44.5,55,2.7,1.9,-90,39.2761,16.127,10.8,,,,,,,,,,,,,,,,,,,,,,,,,,,,,,,,,,,,,,,,,,,,,,,,,,,,,,,,,,,,,,,,,,,,,,,,,,,,,,,,,,,,,,,,,,,,,,,,,,,
212,"Campano Lucano (aftershock 9), Italy",4.90,ML,0,40.833,15.283,18,2.3,2.4,5.6,1,1,98,55,2.3,2.4,-90,40.8451,15.2741,16.2,,,,,,,,,,,,,,,,,,,,,,,,,,,,,,,,,,,,,,,,,,,,,,,,,,,,,,,,,,,,,,,,,,,,,,,,,,,,,,,,,,,,,,,,,,,,,,,,,,,
213,"Campano Lucano (aftershock 1), Italy",4.60,ML,0,40.89,15.31,21,1.9,2.9,5.7,1,1,93.9,55,1.9,2.9,-90,40.8982,15.3002,19.8,,,,,,,,,,,,,,,,,,,,,,,,,,,,,,,,,,,,,,,,,,,,,,,,,,,,,,,,,,,,,,,,,,,,,,,,,,,,,,,,,,,,,,,,,,,,,,,,,,,
214,"Campano Lucano (aftershock 2), Italy",4.00,ML,0,41.1,15.27,32,0.7,1.3,0.9,1,1,352.5,55,0.7,1.3,-90,41.0964,15.2643,31.2,,,,,,,,,,,,,,,,,,,,,,,,,,,,,,,,,,,,,,,,,,,,,,,,,,,,,,,,,,,,,,,,,,,,,,,,,,,,,,,,,,,,,,,,,,,,,,,,,,,
215,"Campano Lucano (aftershock 3), Italy",4.50,ML,0,40.95,15.33,24,2.7,2,5.5,1,1,93.3,55,2.7,2,-90,40.9609,15.3047,22.4,,,,,,,,,,,,,,,,,,,,,,,,,,,,,,,,,,,,,,,,,,,,,,,,,,,,,,,,,,,,,,,,,,,,,,,,,,,,,,,,,,,,,,,,,,,,,,,,,,,
217,"Campano Lucano (aftershock 10), Italy",4.50,ML,0,40.766,15.35,19,2,1.6,3.2,1,1,147.9,55,2,1.6,-90,40.7802,15.3509,17.7,,,,,,,,,,,,,,,,,,,,,,,,,,,,,,,,,,,,,,,,,,,,,,,,,,,,,,,,,,,,,,,,,,,,,,,,,,,,,,,,,,,,,,,,,,,,,,,,,,,
218,"Campano Lucano (aftershock 4), Italy",4.60,ML,0,40.83,15.23,9,2.6,3.2,8.3,1,1,340.2,55,2.6,3.2,-90,40.8113,15.2191,6.8,,,,,,,,,,,,,,,,,,,,,,,,,,,,,,,,,,,,,,,,,,,,,,,,,,,,,,,,,,,,,,,,,,,,,,,,,,,,,,,,,,,,,,,,,,,,,,,,,,,
219,"Campano Lucano (aftershock 6), Italy",4.00,ML,0,40.98,15.23,5,1.1,1.1,1.2,1,1,238.2,55,1.1,1.1,-90,40.9766,15.2344,4.3,,,,,,,,,,,,,,,,,,,,,,,,,,,,,,,,,,,,,,,,,,,,,,,,,,,,,,,,,,,,,,,,,,,,,,,,,,,,,,,,,,,,,,,,,,,,,,,,,,,
220,"Campano Lucano (aftershock 7), Italy",4.00,ML,0,40.87,15.27,4,1.7,0.9,1.5,1,1,266.5,55,1.7,0.9,-90,40.8661,15.2807,3.3,,,,,,,,,,,,,,,,,,,,,,,,,,,,,,,,,,,,,,,,,,,,,,,,,,,,,,,,,,,,,,,,,,,,,,,,,,,,,,,,,,,,,,,,,,,,,,,,,,,
221,"Campano Lucano (aftershock 8), Italy",4.90,ML,0,41,14.67,10,2.6,1.4,3.6,1,1,63,55,2.6,1.4,-90,41.0006,14.6517,8.9,,,,,,,,,,,,,,,,,,,,,,,,,,,,,,,,,,,,,,,,,,,,,,,,,,,,,,,,,,,,,,,,,,,,,,,,,,,,,,,,,,,,,,,,,,,,,,,,,,,
224,"Umbria-03, Italy",5.60,Mw,0,43.204,12.585,9,6.1,4.2,25.6,1,1,100.4,55,6.1,4.2,-90,43.2262,12.5793,5.7,,,,,,,,,,,,,,,,,,,,,,,,,,,,,,,,,,,,,,,,,,,,,,,,,,,,,,,,,,,,,,,,,,,,,,,,,,,,,,,,,,,,,,,,,,,,,,,,,,,
225,"Lazio Abruzzo (aftershock 1), Italy",5.50,Mw,0,41.7318,13.9208,8,3.9,3.7,14.3,1,1,273,55,3.9,3.7,-90,41.7128,13.9515,5.2,,,,,,,,,,,,,,,,,,,,,,,,,,,,,,,,,,,,,,,,,,,,,,,,,,,,,,,,,,,,,,,,,,,,,,,,,,,,,,,,,,,,,,,,,,,,,,,,,,,
226,"Lazio Abruzzo (aftershock 2, Italy",4.80,Mw,0,41.733,13.901,11,1.4,3.3,4.8,1,1,58.8,55,1.4,3.3,-90,41.7414,13.8808,8.6,,,,,,,,,,,,,,,,,,,,,,,,,,,,,,,,,,,,,,,,,,,,,,,,,,,,,,,,,,,,,,,,,,,,,,,,,,,,,,,,,,,,,,,,,,,,,,,,,,,
231,"Potenza, Italy",5.80,Mw,0,40.644,15.875,8,6.2,4.3,26.9,1,1,347.3,90,6.2,4.3,0,40.6033,15.8871,4,,,,,,,,,,,,,,,,,,,,,,,,,,,,,,,,,,,,,,,,,,,,,,,,,,,,,,,,,,,,,,,,,,,,,,,,,,,,,,,,,,,,,,,,,,,,,,,,,,,
232,"Sicilia-Orientale, Italy",5.60,Mw,0,37.33,15.28,5,11.1,8.2,91.8,1,1,257.7,90,11.1,8.2,0,37.3469,15.3781,0,,,,,,,,,,,,,,,,,,,,,,,,,,,,,,,,,,,,,,,,,,,,,,,,,,,,,,,,,,,,,,,,,,,,,,,,,,,,,,,,,,,,,,,,,,,,,,,,,,,
233,"Umbria Marche (foreshock), Italy",5.70,Mw,0,43.023,12.892,7,5.5,5.2,28.6,1,1,139,55,5.5,5.2,-90,43.0471,12.8978,4,,,,,,,,,,,,,,,,,,,,,,,,,,,,,,,,,,,,,,,,,,,,,,,,,,,,,,,,,,,,,,,,,,,,,,,,,,,,,,,,,,,,,,,,,,,,,,,,,,,
234,"Umbria Marche, Italy",6.00,Mw,0,43.031,12.862,6,7.1,13.3,94.2,1,1,326,55,7.1,13.3,-90,42.9771,12.8495,0,,,,,,,,,,,,,,,,,,,,,,,,,,,,,,,,,,,,,,,,,,,,,,,,,,,,,,,,,,,,,,,,,,,,,,,,,,,,,,,,,,,,,,,,,,,,,,,,,,,
235,"Umbria Marche (aftershock 3), Italy",5.30,Mw,0,43.033,12.838,6,3,3.7,11.3,1,1,95.9,55,3,3.7,-90,43.0493,12.825,3.6,,,,,,,,,,,,,,,,,,,,,,,,,,,,,,,,,,,,,,,,,,,,,,,,,,,,,,,,,,,,,,,,,,,,,,,,,,,,,,,,,,,,,,,,,,,,,,,,,,,
236,"Umbria Marche (aftershock 4), Italy",4.70,Mw,0,42.933,12.936,2,3.2,3.2,10.3,1,1,182.5,55,3.2,3.2,-90,42.9452,12.9519,0.2,,,,,,,,,,,,,,,,,,,,,,,,,,,,,,,,,,,,,,,,,,,,,,,,,,,,,,,,,,,,,,,,,,,,,,,,,,,,,,,,,,,,,,,,,,,,,,,,,,,
237,Umbria Marche (aftershock 1). Italy,5.50,Mw,0,43.019,12.838,7,6.5,4.8,31.2,1,1,39.3,55,6.5,4.8,-90,43.0036,12.7896,4.2,,,,,,,,,,,,,,,,,,,,,,,,,,,,,,,,,,,,,,,,,,,,,,,,,,,,,,,,,,,,,,,,,,,,,,,,,,,,,,,,,,,,,,,,,,,,,,,,,,,
238,"Umbria Marche (aftershock 5), Italy",4.20,Mw,0,43.01,12.783,10,1.3,1.4,1.9,1,1,184.1,55,1.3,1.4,-90,43.0155,12.7908,9.2,,,,,,,,,,,,,,,,,,,,,,,,,,,,,,,,,,,,,,,,,,,,,,,,,,,,,,,,,,,,,,,,,,,,,,,,,,,,,,,,,,,,,,,,,,,,,,,,,,,
239,"Umbria Marche (aftershock 6), Italy",4.50,Mw,0,43.025,12.865,3,1,1.5,1.5,1,1,99.5,90,1,1.5,0,43.0258,12.8583,1.8,,,,,,,,,,,,,,,,,,,,,,,,,,,,,,,,,,,,,,,,,,,,,,,,,,,,,,,,,,,,,,,,,,,,,,,,,,,,,,,,,,,,,,,,,,,,,,,,,,,
240,"Umbria Marche (aftershock 7), Italy",4.30,ML,0,42.975,12.787,10,1.4,1.3,1.8,1,1,68.4,55,1.4,1.3,-90,42.9769,12.7729,9.1,,,,,,,,,,,,,,,,,,,,,,,,,,,,,,,,,,,,,,,,,,,,,,,,,,,,,,,,,,,,,,,,,,,,,,,,,,,,,,,,,,,,,,,,,,,,,,,,,,,
241,"Umbria Marche (aftershock 8), Italy",5.20,Mw,0,42.91,12.946,6,4.4,2,8.7,1,1,334.5,55,4.4,2,-90,42.8911,12.9489,5,,,,,,,,,,,,,,,,,,,,,,,,,,,,,,,,,,,,,,,,,,,,,,,,,,,,,,,,,,,,,,,,,,,,,,,,,,,,,,,,,,,,,,,,,,,,,,,,,,,
243,"Umbria Marche (aftershock 2), Italy",5.60,Mw,0,42.919,12.926,7,5.6,6.4,36,1,1,5.4,55,5.6,6.4,-90,42.8921,12.8928,3.6,,,,,,,,,,,,,,,,,,,,,,,,,,,,,,,,,,,,,,,,,,,,,,,,,,,,,,,,,,,,,,,,,,,,,,,,,,,,,,,,,,,,,,,,,,,,,,,,,,,
244,"Umbria Marche (aftershock 10), Italy",4.30,ML,0,42.927,12.857,10,1.5,1,1.5,1,1,69.5,55,1.5,1,-90,42.9301,12.8512,9.3,,,,,,,,,,,,,,,,,,,,,,,,,,,,,,,,,,,,,,,,,,,,,,,,,,,,,,,,,,,,,,,,,,,,,,,,,,,,,,,,,,,,,,,,,,,,,,,,,,,
245,"Umbria Marche (aftershock 11), Italy",4.60,Mw,0,43.034,12.891,2,1.8,1.3,2.2,1,1,111.7,90,1.8,1.3,0,43.0356,12.8855,0.9,,,,,,,,,,,,,,,,,,,,,,,,,,,,,,,,,,,,,,,,,,,,,,,,,,,,,,,,,,,,,,,,,,,,,,,,,,,,,,,,,,,,,,,,,,,,,,,,,,,
246,"Umbria Marche (aftershock 12), Italy",4.60,ML,0,42.901,12.939,10,2.8,1.7,4.9,1,1,339.6,55,2.8,1.7,-90,42.8802,12.9367,8.6,,,,,,,,,,,,,,,,,,,,,,,,,,,,,,,,,,,,,,,,,,,,,,,,,,,,,,,,,,,,,,,,,,,,,,,,,,,,,,,,,,,,,,,,,,,,,,,,,,,
247,"Umbria Marche (aftershock 13), Italy",4.90,Mw,0,42.854,13,2,2.3,3.7,8.6,1,1,16.6,55,2.3,3.7,-90,42.8427,12.9775,0,,,,,,,,,,,,,,,,,,,,,,,,,,,,,,,,,,,,,,,,,,,,,,,,,,,,,,,,,,,,,,,,,,,,,,,,,,,,,,,,,,,,,,,,,,,,,,,,,,,
248,"Umbria Marche (aftershock 14), Italy",4.10,ML,0,42.867,12.975,10,0.9,1.1,1,1,1,3.2,55,0.9,1.1,-90,42.8627,12.9678,9.2,,,,,,,,,,,,,,,,,,,,,,,,,,,,,,,,,,,,,,,,,,,,,,,,,,,,,,,,,,,,,,,,,,,,,,,,,,,,,,,,,,,,,,,,,,,,,,,,,,,
249,"Umbria Marche (aftershock 15), Italy",5.00,Mw,0,42.958,12.879,10,2.3,2.8,6.3,1,1,342.5,55,2.3,2.8,-90,42.9431,12.8683,8.1,,,,,,,,,,,,,,,,,,,,,,,,,,,,,,,,,,,,,,,,,,,,,,,,,,,,,,,,,,,,,,,,,,,,,,,,,,,,,,,,,,,,,,,,,,,,,,,,,,,
250,"Umbria Marche (aftershock 16), Italy",5.40,Mw,0,43.238,12.931,41,4,3.7,14.7,1,1,288.7,55,4,3.7,-90,43.2204,12.9284,38.3,,,,,,,,,,,,,,,,,,,,,,,,,,,,,,,,,,,,,,,,,,,,,,,,,,,,,,,,,,,,,,,,,,,,,,,,,,,,,,,,,,,,,,,,,,,,,,,,,,,
251,"Umbria Marche (aftershock 17), Italy",5.10,Mw,0,43.2,12.79,6,4,2.5,10,1,1,266,55,4,2.5,-90,43.1889,12.8018,4.1,,,,,,,,,,,,,,,,,,,,,,,,,,,,,,,,,,,,,,,,,,,,,,,,,,,,,,,,,,,,,,,,,,,,,,,,,,,,,,,,,,,,,,,,,,,,,,,,,,,
252,"Umbria Marche (aftershock 18), Italy",4.80,Mw,0,43.185,12.719,10,2.2,2.1,4.7,1,1,127.4,55,2.2,2.1,-90,43.1956,12.7217,8.5,,,,,,,,,,,,,,,,,,,,,,,,,,,,,,,,,,,,,,,,,,,,,,,,,,,,,,,,,,,,,,,,,,,,,,,,,,,,,,,,,,,,,,,,,,,,,,,,,,,
259,"Toscana, Italy",4.10,ML,0,44.08,10.65,30,1.3,1.7,2.2,1,1,265,40,1.3,1.7,90,44.0718,10.6563,29.2,,,,,,,,,,,,,,,,,,,,,,,,,,,,,,,,,,,,,,,,,,,,,,,,,,,,,,,,,,,,,,,,,,,,,,,,,,,,,,,,,,,,,,,,,,,,,,,,,,,
262,"Montenegro, Yugoslavia",7.10,Mw,1,42.04,19.21,7,54,34,1837,1,1,300,14,54,34,88,41.9073,19.1907,3.6,,,,,,,,,,,,,,,,,,,,,,,,,,,,,,,,,,,,,,,,,,,,,,,,,,,,,,,,,,,,,,,,,,,,,,,,,,,,,,,,,,,,,,,,,,,,,,,,,,,
274,"L'Aquila, Italy",6.30,Mw,1,42.3476,13.38,9.3,20,16,320,1,1,139,48,20,16,-98,42.4371,13.3976,0.8,,,,,,,,,,,,,,,,,,,,,,,,,,,,,,,,,,,,,,,,,,,,,,,,,,,,,,,,,,,,,,,,,,,,,,,,,,,,,,,,,,,,,,,,,,,,,,,,,,,
275,"L'Aquila (aftershock 1), Italy",5.60,Mw,0,42.275,13.464,15.1,6.8,6.6,44.8,1,1,105,53,6.8,6.6,-134,42.3143,13.4466,10,,,,,,,,,,,,,,,,,,,,,,,,,,,,,,,,,,,,,,,,,,,,,,,,,,,,,,,,,,,,,,,,,,,,,,,,,,,,,,,,,,,,,,,,,,,,,,,,,,,
276,"L'Aquila (aftershock 2), Italy",5.40,Mw,0,42.484,13.343,15.4,5.3,4.9,26.2,1,1,136,46,5.3,4.9,-99,42.5233,13.349,11.9,,,,,,,,,,,,,,,,,,,,,,,,,,,,,,,,,,,,,,,,,,,,,,,,,,,,,,,,,,,,,,,,,,,,,,,,,,,,,,,,,,,,,,,,,,,,,,,,,,,
277a,"Wenchuan, China",7.90,Mw,1,30.986,103.364,10,150,45,6749.8,1,1,228,35,150,45,110,31.707,104.5163,0,,,,,,,,,,,,,,,,,,,,,,,,,,,,,,,,,,,,,,,,,,,,,,,,,,,,,,,,,,,,,,,,,,,,,,,,,,,,,,,,,,,,,,,,,,,,,,,,,,,
277b,"Wenchuan, China",7.90,Mw,1,31.8374,104.3543,10,150,40,5999.6,1,1,232,65,150,40,165,32.6292,105.6449,0,,,,,,,,,,,,,,,,,,,,,,,,,,,,,,,,,,,,,,,,,,,,,,,,,,,,,,,,,,,,,,,,,,,,,,,,,,,,,,,,,,,,,,,,,,,,,,,,,,,
278,"Chuetsu-Oki, Japan",6.80,Mw,1,37.5382,138.6174,9,32,24,768.2,1,1,34,36,32,24,90,37.3849,138.3771,3.1,,,,,,,,,,,,,,,,,,,,,,,,,,,,,,,,,,,,,,,,,,,,,,,,,,,,,,,,,,,,,,,,,,,,,,,,,,,,,,,,,,,,,,,,,,,,,,,,,,,
279,"Iwate, Japan",6.90,Mw,1,39.027,140.878,6.5,40,18,720.6,1,1,209,40,40,18,104,39.1462,141.0546,0.7,,,,,,,,,,,,,,,,,,,,,,,,,,,,,,,,,,,,,,,,,,,,,,,,,,,,,,,,,,,,,,,,,,,,,,,,,,,,,,,,,,,,,,,,,,,,,,,,,,,
280a,"El Mayor-Cucapah, Mexico",7.20,Mw,1,32.3,-115.267,5.5,18,12,216.1,1,1,355,45,18,12,-90,32.1527,-115.305,0.5,,,,,,,,,,,,,,,,,,,,,,,,,,,,,,,,,,,,,,,,,,,,,,,,,,,,,,,,,,,,,,,,,,,,,,,,,,,,,,,,,,,,,,,,,,,,,,,,,,,
280b,"El Mayor-Cucapah, Mexico",7.20,Mw,1,32.2754,-115.3212,2,51,12,611.9,1,1,312,75,51,12,-180,32.2728,-115.324,0.6,,,,,,,,,,,,,,,,,,,,,,,,,,,,,,,,,,,,,,,,,,,,,,,,,,,,,,,,,,,,,,,,,,,,,,,,,,,,,,,,,,,,,,,,,,,,,,,,,,,
280c,"El Mayor-Cucapah, Mexico",7.20,Mw,1,32.2685,-115.3342,1.8,66,18,1188.1,1,1,131,60,66,18,-170,32.2736,-115.329,0.5,,,,,,,,,,,,,,,,,,,,,,,,,,,,,,,,,,,,,,,,,,,,,,,,,,,,,,,,,,,,,,,,,,,,,,,,,,,,,,,,,,,,,,,,,,,,,,,,,,,
280d,"El Mayor-Cucapah, Mexico",7.20,Mw,1,32.5823,-115.7117,1.8,9,6,54,1,1,335.2,50,9,6,-180,32.5786,-115.721,0.6,,,,,,,,,,,,,,,,,,,,,,,,,,,,,,,,,,,,,,,,,,,,,,,,,,,,,,,,,,,,,,,,,,,,,,,,,,,,,,,,,,,,,,,,,,,,,,,,,,,
281,"Darfield, New Zealand",7.00,Mw,1,-43.615,172.049,10.9,52.5,24,1260.1,1,1,85.1,82.2,52.5,24,180,-43.6193,171.7568,0,,,,,,,,,,,,,,,,,,,,,,,,,,,,,,,,,,,,,,,,,,,,,,,,,,,,,,,,,,,,,,,,,,,,,,,,,,,,,,,,,,,,,,,,,,,,,,,,,,,
282,"Wenchuan, China-01",6.00,Mw,0,32.549,105.48,14,9.4,7.6,71.3,1,1,59,84,9.4,7.6,178,32.5307,105.4315,8.3,,,,,,,,,,,,,,,,,,,,,,,,,,,,,,,,,,,,,,,,,,,,,,,,,,,,,,,,,,,,,,,,,,,,,,,,,,,,,,,,,,,,,,,,,,,,,,,,,,,
283,"Wenchuan, China-02",6.10,Mw,0,31.26,103.669,14,12.1,7.3,88.1,1,1,204,71,12.1,7.3,-169,31.2987,103.7075,9.4,,,,,,,,,,,,,,,,,,,,,,,,,,,,,,,,,,,,,,,,,,,,,,,,,,,,,,,,,,,,,,,,,,,,,,,,,,,,,,,,,,,,,,,,,,,,,,,,,,,
284,"Wenchuan, China-03",6.30,MS,0,31.27,103.819,14,11.5,13,149.5,1,1,228,35,11.5,13,90,31.2618,103.9123,9.4,,,,,,,,,,,,,,,,,,,,,,,,,,,,,,,,,,,,,,,,,,,,,,,,,,,,,,,,,,,,,,,,,,,,,,,,,,,,,,,,,,,,,,,,,,,,,,,,,,,
285,"Wenchuan, China-04",5.50,Mw,0,31.43,104.059,21,5.2,5.7,29.9,1,1,217,36,5.2,5.7,108,31.434,104.1029,18.8,,,,,,,,,,,,,,,,,,,,,,,,,,,,,,,,,,,,,,,,,,,,,,,,,,,,,,,,,,,,,,,,,,,,,,,,,,,,,,,,,,,,,,,,,,,,,,,,,,,
286,"Wenchuan, China-05",5.60,Mw,0,30.95,103.419,14,6.1,6.1,37.2,1,1,241,55,6.1,6.1,49,30.9403,103.4614,9.9,,,,,,,,,,,,,,,,,,,,,,,,,,,,,,,,,,,,,,,,,,,,,,,,,,,,,,,,,,,,,,,,,,,,,,,,,,,,,,,,,,,,,,,,,,,,,,,,,,,
287,"Wenchuan, China-06",5.50,MS,0,31.53,104.279,11,5.8,5.7,33.3,1,1,228,35,5.8,5.7,90,31.5229,104.3266,8.5,,,,,,,,,,,,,,,,,,,,,,,,,,,,,,,,,,,,,,,,,,,,,,,,,,,,,,,,,,,,,,,,,,,,,,,,,,,,,,,,,,,,,,,,,,,,,,,,,,,
288,"Wenchuan, China-07",5.50,MS,0,31.45,104.489,13,5.2,4.4,22.9,1,1,228,35,5.2,4.4,90,31.4465,104.5154,11.6,,,,,,,,,,,,,,,,,,,,,,,,,,,,,,,,,,,,,,,,,,,,,,,,,,,,,,,,,,,,,,,,,,,,,,,,,,,,,,,,,,,,,,,,,,,,,,,,,,,
289,"Wenchuan, China-08",5.20,MS,0,31.729,104.55,20,4.4,3.6,15.8,1,1,228,35,4.4,3.6,90,31.7312,104.5805,18.8,,,,,,,,,,,,,,,,,,,,,,,,,,,,,,,,,,,,,,,,,,,,,,,,,,,,,,,,,,,,,,,,,,,,,,,,,,,,,,,,,,,,,,,,,,,,,,,,,,,
290,"Wenchuan, China-09",5.50,Mw,0,31.309,103.449,14,5.9,5.8,34.4,1,1,243,59,5.9,5.8,-156,31.31,103.4849,11.6,,,,,,,,,,,,,,,,,,,,,,,,,,,,,,,,,,,,,,,,,,,,,,,,,,,,,,,,,,,,,,,,,,,,,,,,,,,,,,,,,,,,,,,,,,,,,,,,,,,
291,"Wenchuan, China-10",5.70,Mw,0,32.2,105.08,13,7.8,6.1,47.6,1,1,246,49,7.8,6.1,66,32.1968,105.1288,10.5,,,,,,,,,,,,,,,,,,,,,,,,,,,,,,,,,,,,,,,,,,,,,,,,,,,,,,,,,,,,,,,,,,,,,,,,,,,,,,,,,,,,,,,,,,,,,,,,,,,
292,"Wenchuan, China-11",5.40,mb,0,31.27,103.58,10,5.2,3.6,18.9,1,1,228.1,35,5.2,3.6,90,31.2742,103.606,9.1,,,,,,,,,,,,,,,,,,,,,,,,,,,,,,,,,,,,,,,,,,,,,,,,,,,,,,,,,,,,,,,,,,,,,,,,,,,,,,,,,,,,,,,,,,,,,,,,,,,
293,"Wenchuan, China-12",5.30,Mw,0,31.34,103.629,16,4.2,5.5,23.3,1,1,214.9,80,4.2,5.5,15,31.3496,103.6467,11.6,,,,,,,,,,,,,,,,,,,,,,,,,,,,,,,,,,,,,,,,,,,,,,,,,,,,,,,,,,,,,,,,,,,,,,,,,,,,,,,,,,,,,,,,,,,,,,,,,,,
294,"Wenchuan, China-13",5.70,Mw,0,32.779,105.699,15,6.5,6.7,43.9,1,1,88.9,73,6.5,6.7,-164,32.7912,105.6538,10.3,,,,,,,,,,,,,,,,,,,,,,,,,,,,,,,,,,,,,,,,,,,,,,,,,,,,,,,,,,,,,,,,,,,,,,,,,,,,,,,,,,,,,,,,,,,,,,,,,,,
295,"Wenchuan, China-14",5.70,Mw,0,32.759,105.61,10,7,4.6,31.8,1,1,17,79,7,4.6,165,32.7324,105.5917,6,,,,,,,,,,,,,,,,,,,,,,,,,,,,,,,,,,,,,,,,,,,,,,,,,,,,,,,,,,,,,,,,,,,,,,,,,,,,,,,,,,,,,,,,,,,,,,,,,,,
296,"Wenchuan, China-15",5.70,Mw,0,32.02,104.849,14,7.6,4.2,32,1,1,221,70,7.6,4.2,44,32.0383,104.8872,10.2,,,,,,,,,,,,,,,,,,,,,,,,,,,,,,,,,,,,,,,,,,,,,,,,,,,,,,,,,,,,,,,,,,,,,,,,,,,,,,,,,,,,,,,,,,,,,,,,,,,
297,"Wenchuan, China-16",5.90,Mw,0,32.72,105.61,13,8.1,8.5,68.8,1,1,348,44,8.1,8.5,103,32.6819,105.5795,9.4,,,,,,,,,,,,,,,,,,,,,,,,,,,,,,,,,,,,,,,,,,,,,,,,,,,,,,,,,,,,,,,,,,,,,,,,,,,,,,,,,,,,,,,,,,,,,,,,,,,
298,"Wenchuan, China-17",5.10,Mw,0,31.28,103.629,10,3.9,2.9,11.2,1,1,254,54,3.9,2.9,-99,31.2701,103.6499,7.8,,,,,,,,,,,,,,,,,,,,,,,,,,,,,,,,,,,,,,,,,,,,,,,,,,,,,,,,,,,,,,,,,,,,,,,,,,,,,,,,,,,,,,,,,,,,,,,,,,,
299,"Wenchuan, China-18",5.50,Mw,0,32.72,105.629,10,5.7,4.3,24.5,1,1,10,44,5.7,4.3,51,32.6979,105.5959,7.5,,,,,,,,,,,,,,,,,,,,,,,,,,,,,,,,,,,,,,,,,,,,,,,,,,,,,,,,,,,,,,,,,,,,,,,,,,,,,,,,,,,,,,,,,,,,,,,,,,,
300,"Wenchuan, China-19",5.00,MS,0,31.02,103.65,9,2.7,5.5,14.6,1,1,228.1,35,2.7,5.5,90,31.0083,103.6828,6.9,,,,,,,,,,,,,,,,,,,,,,,,,,,,,,,,,,,,,,,,,,,,,,,,,,,,,,,,,,,,,,,,,,,,,,,,,,,,,,,,,,,,,,,,,,,,,,,,,,,
301,"Wenchuan, China-20",5.30,MS,0,31.479,104.129,14,5.1,3.3,16.9,1,1,228.1,35,5.1,3.3,90,31.4816,104.1543,13,,,,,,,,,,,,,,,,,,,,,,,,,,,,,,,,,,,,,,,,,,,,,,,,,,,,,,,,,,,,,,,,,,,,,,,,,,,,,,,,,,,,,,,,,,,,,,,,,,,
302,"Wenchuan, China-21",4.70,MS,0,32.72,105.639,10,2.7,2.5,6.7,1,1,232.1,65,2.7,2.5,90,32.7226,105.6532,8.7,,,,,,,,,,,,,,,,,,,,,,,,,,,,,,,,,,,,,,,,,,,,,,,,,,,,,,,,,,,,,,,,,,,,,,,,,,,,,,,,,,,,,,,,,,,,,,,,,,,
303,"Wenchuan, China-22",5.20,Mw,0,31.34,103.58,13,4.2,5.3,22.6,1,1,209.9,84,4.2,5.3,-90,31.3548,103.5941,9.8,,,,,,,,,,,,,,,,,,,,,,,,,,,,,,,,,,,,,,,,,,,,,,,,,,,,,,,,,,,,,,,,,,,,,,,,,,,,,,,,,,,,,,,,,,,,,,,,,,,
304,"Wenchuan, China-23",5.80,MS,0,31.26,103.589,13,8.5,7.4,62.6,1,1,228,35,8.5,7.4,90,31.2564,103.6518,10,,,,,,,,,,,,,,,,,,,,,,,,,,,,,,,,,,,,,,,,,,,,,,,,,,,,,,,,,,,,,,,,,,,,,,,,,,,,,,,,,,,,,,,,,,,,,,,,,,,
305,"Wenchuan, China-24",5.80,MS,0,31.29,103.769,13,6.1,7.1,43.2,1,1,227.9,35,6.1,7.1,90,31.2854,103.8173,10.6,,,,,,,,,,,,,,,,,,,,,,,,,,,,,,,,,,,,,,,,,,,,,,,,,,,,,,,,,,,,,,,,,,,,,,,,,,,,,,,,,,,,,,,,,,,,,,,,,,,
306,"Wenchuan, China-25",5.10,Mw,0,31.409,104.12,10,3.2,4.4,13.9,1,1,29.1,42,3.2,4.4,90,31.3996,104.0953,8.6,,,,,,,,,,,,,,,,,,,,,,,,,,,,,,,,,,,,,,,,,,,,,,,,,,,,,,,,,,,,,,,,,,,,,,,,,,,,,,,,,,,,,,,,,,,,,,,,,,,
307,"Wenchuan, China-26",4.80,ML,0,31.389,103.73,10,2.6,3.1,8.1,1,1,228,35,2.6,3.1,90,31.3844,103.7519,8.8,,,,,,,,,,,,,,,,,,,,,,,,,,,,,,,,,,,,,,,,,,,,,,,,,,,,,,,,,,,,,,,,,,,,,,,,,,,,,,,,,,,,,,,,,,,,,,,,,,,
308,"Wenchuan, China-27",4.50,MS,0,31.1,103.589,10,2,1.6,3.1,1,1,227.9,35,2,1.6,90,31.101,103.6005,9.5,,,,,,,,,,,,,,,,,,,,,,,,,,,,,,,,,,,,,,,,,,,,,,,,,,,,,,,,,,,,,,,,,,,,,,,,,,,,,,,,,,,,,,,,,,,,,,,,,,,
309,"Wenchuan, China-28",4.80,MS,0,30.899,103.54,11,2.5,2.9,7,1,1,228.1,35,2.5,2.9,90,30.897,103.5586,10.1,,,,,,,,,,,,,,,,,,,,,,,,,,,,,,,,,,,,,,,,,,,,,,,,,,,,,,,,,,,,,,,,,,,,,,,,,,,,,,,,,,,,,,,,,,,,,,,,,,,
310,"Wenchuan, China-29",5.50,MS,0,31.139,103.599,10,4.9,8.1,39.4,1,1,228.1,35,4.9,8.1,90,31.1206,103.6475,6.8,,,,,,,,,,,,,,,,,,,,,,,,,,,,,,,,,,,,,,,,,,,,,,,,,,,,,,,,,,,,,,,,,,,,,,,,,,,,,,,,,,,,,,,,,,,,,,,,,,,
311,"Wenchuan, China-30",5.20,MS,0,31.159,103.69,10,4.3,3.8,16,1,1,228.1,35,4.3,3.8,90,31.1606,103.7193,8.8,,,,,,,,,,,,,,,,,,,,,,,,,,,,,,,,,,,,,,,,,,,,,,,,,,,,,,,,,,,,,,,,,,,,,,,,,,,,,,,,,,,,,,,,,,,,,,,,,,,
312,"Wenchuan, China-31",5.00,MS,0,30.969,103.48,9,3.6,4.2,14.9,1,1,228,35,3.6,4.2,90,30.9665,103.5108,7.5,,,,,,,,,,,,,,,,,,,,,,,,,,,,,,,,,,,,,,,,,,,,,,,,,,,,,,,,,,,,,,,,,,,,,,,,,,,,,,,,,,,,,,,,,,,,,,,,,,,
313,"Wenchuan, China-32",4.90,MS,0,31.209,103.68,24,2.6,3.8,9.9,1,1,228.2,35,2.6,3.8,90,31.2048,103.7073,22.5,,,,,,,,,,,,,,,,,,,,,,,,,,,,,,,,,,,,,,,,,,,,,,,,,,,,,,,,,,,,,,,,,,,,,,,,,,,,,,,,,,,,,,,,,,,,,,,,,,,
314,"Wenchuan, China-33",5.00,mb,0,32.099,104.65,10,2.9,3.3,9.6,1,1,228,35,2.9,3.3,90,32.0975,104.6719,8.9,,,,,,,,,,,,,,,,,,,,,,,,,,,,,,,,,,,,,,,,,,,,,,,,,,,,,,,,,,,,,,,,,,,,,,,,,,,,,,,,,,,,,,,,,,,,,,,,,,,
315,"Wenchuan, China-34",4.80,MS,0,31.36,104.05,17,3.1,2.4,7.4,1,1,227.9,35,3.1,2.4,90,31.3594,104.0701,16.1,,,,,,,,,,,,,,,,,,,,,,,,,,,,,,,,,,,,,,,,,,,,,,,,,,,,,,,,,,,,,,,,,,,,,,,,,,,,,,,,,,,,,,,,,,,,,,,,,,,
316,"Wenchuan, China-35",4.60,MS,0,31.1,103.65,20,2.9,1.6,4.5,1,1,228,35,2.9,1.6,90,31.1031,103.6666,19.4,,,,,,,,,,,,,,,,,,,,,,,,,,,,,,,,,,,,,,,,,,,,,,,,,,,,,,,,,,,,,,,,,,,,,,,,,,,,,,,,,,,,,,,,,,,,,,,,,,,
317,"Wenchuan, China-36",5.00,MS,0,31.26,103.62,17,3.6,2.5,9.2,1,1,228,35,3.6,2.5,90,31.2632,103.6421,16.2,,,,,,,,,,,,,,,,,,,,,,,,,,,,,,,,,,,,,,,,,,,,,,,,,,,,,,,,,,,,,,,,,,,,,,,,,,,,,,,,,,,,,,,,,,,,,,,,,,,
318,"Wenchuan, China-37",4.70,MS,0,31.069,103.339,14,2.3,2.5,5.8,1,1,228.2,35,2.3,2.5,90,31.0679,103.3587,13.1,,,,,,,,,,,,,,,,,,,,,,,,,,,,,,,,,,,,,,,,,,,,,,,,,,,,,,,,,,,,,,,,,,,,,,,,,,,,,,,,,,,,,,,,,,,,,,,,,,,
319,"Wenchuan, China-38",5.20,MS,0,31.159,103.559,10,3.5,4.4,15.7,1,1,228.1,35,3.5,4.4,90,31.1535,103.591,8.3,,,,,,,,,,,,,,,,,,,,,,,,,,,,,,,,,,,,,,,,,,,,,,,,,,,,,,,,,,,,,,,,,,,,,,,,,,,,,,,,,,,,,,,,,,,,,,,,,,,
320,"Wenchuan, China-39",5.10,MS,0,31.05,103.42,14,3.4,3.6,12.2,1,1,227.9,35,3.4,3.6,90,31.045,103.4441,12.6,,,,,,,,,,,,,,,,,,,,,,,,,,,,,,,,,,,,,,,,,,,,,,,,,,,,,,,,,,,,,,,,,,,,,,,,,,,,,,,,,,,,,,,,,,,,,,,,,,,
321,"Wenchuan, China-40",4.80,MS,0,31.2,103.79,17,2.7,3,8.1,1,1,228.1,35,2.7,3,90,31.1976,103.8096,16,,,,,,,,,,,,,,,,,,,,,,,,,,,,,,,,,,,,,,,,,,,,,,,,,,,,,,,,,,,,,,,,,,,,,,,,,,,,,,,,,,,,,,,,,,,,,,,,,,,
322,"Wenchuan, China-41",4.30,MS,0,31.25,103.879,20,1.6,1.4,2.3,1,1,227.9,35,1.6,1.4,90,31.2503,103.8913,19.5,,,,,,,,,,,,,,,,,,,,,,,,,,,,,,,,,,,,,,,,,,,,,,,,,,,,,,,,,,,,,,,,,,,,,,,,,,,,,,,,,,,,,,,,,,,,,,,,,,,
323,"Wenchuan, China-42",4.60,MS,0,31.149,103.449,17,2.3,2.2,5,1,1,227.9,35,2.3,2.2,90,31.1478,103.4681,16.1,,,,,,,,,,,,,,,,,,,,,,,,,,,,,,,,,,,,,,,,,,,,,,,,,,,,,,,,,,,,,,,,,,,,,,,,,,,,,,,,,,,,,,,,,,,,,,,,,,,
324,"Wenchuan, China-43",5.10,MS,0,32.349,105.239,18,4.4,3,13.3,1,1,232,65,4.4,3,90,32.3571,105.2672,16,,,,,,,,,,,,,,,,,,,,,,,,,,,,,,,,,,,,,,,,,,,,,,,,,,,,,,,,,,,,,,,,,,,,,,,,,,,,,,,,,,,,,,,,,,,,,,,,,,,
325,"Wenchuan, China-44",4.70,MS,0,32.24,105.099,23,2.4,2.5,5.9,1,1,231.9,65,2.4,2.5,90,32.2426,105.1148,21.5,,,,,,,,,,,,,,,,,,,,,,,,,,,,,,,,,,,,,,,,,,,,,,,,,,,,,,,,,,,,,,,,,,,,,,,,,,,,,,,,,,,,,,,,,,,,,,,,,,,
326,"Wenchuan, China-45",5.10,MS,0,31.399,104.12,12,3.5,3.4,12,1,1,228,35,3.5,3.4,90,31.4006,104.1457,10.9,,,,,,,,,,,,,,,,,,,,,,,,,,,,,,,,,,,,,,,,,,,,,,,,,,,,,,,,,,,,,,,,,,,,,,,,,,,,,,,,,,,,,,,,,,,,,,,,,,,
327,"Wenchuan, China-46",3.80,MS,0,31.049,104.58,15,0.8,1.2,0.9,1,1,227.9,35,0.8,1.2,90,31.0466,104.5871,14.5,,,,,,,,,,,,,,,,,,,,,,,,,,,,,,,,,,,,,,,,,,,,,,,,,,,,,,,,,,,,,,,,,,,,,,,,,,,,,,,,,,,,,,,,,,,,,,,,,,,
328,"Wenchuan, China-47",4.70,MS,0,31.95,104.239,15,2.8,1.5,4.2,1,1,232.1,65,2.8,1.5,90,31.9541,104.2543,13.9,,,,,,,,,,,,,,,,,,,,,,,,,,,,,,,,,,,,,,,,,,,,,,,,,,,,,,,,,,,,,,,,,,,,,,,,,,,,,,,,,,,,,,,,,,,,,,,,,,,
329,"Wenchuan, China-48",4.90,MS,0,31.87,104.569,9,2.9,2.2,6.4,1,1,232.1,65,2.9,2.2,90,31.8712,104.585,7.2,,,,,,,,,,,,,,,,,,,,,,,,,,,,,,,,,,,,,,,,,,,,,,,,,,,,,,,,,,,,,,,,,,,,,,,,,,,,,,,,,,,,,,,,,,,,,,,,,,,
330,"Wenchuan, China-49",4.30,MS,0,31.579,104.11,15,1.8,1.2,2,1,1,228.2,35,1.8,1.2,90,31.5804,104.1211,14.6,,,,,,,,,,,,,,,,,,,,,,,,,,,,,,,,,,,,,,,,,,,,,,,,,,,,,,,,,,,,,,,,,,,,,,,,,,,,,,,,,,,,,,,,,,,,,,,,,,,
331,"Wenchuan, China-50",4.30,MS,0,31.43,103.98,16,1.1,1.6,1.8,1,1,228.1,35,1.1,1.6,90,31.4275,103.9877,15.5,,,,,,,,,,,,,,,,,,,,,,,,,,,,,,,,,,,,,,,,,,,,,,,,,,,,,,,,,,,,,,,,,,,,,,,,,,,,,,,,,,,,,,,,,,,,,,,,,,,
332,"Wenchuan, China-51",4.30,MS,0,31.389,103.629,20,1.5,1.9,2.8,1,1,227.6,35,1.5,1.9,90,31.3846,103.6426,19.1,,,,,,,,,,,,,,,,,,,,,,,,,,,,,,,,,,,,,,,,,,,,,,,,,,,,,,,,,,,,,,,,,,,,,,,,,,,,,,,,,,,,,,,,,,,,,,,,,,,
333,"Wenchuan, China-52",4.80,Mw,0,31.389,104.16,11,2.2,2.3,5,1,1,225.1,26,2.2,2.3,101,31.389,104.1755,10.5,,,,,,,,,,,,,,,,,,,,,,,,,,,,,,,,,,,,,,,,,,,,,,,,,,,,,,,,,,,,,,,,,,,,,,,,,,,,,,,,,,,,,,,,,,,,,,,,,,,
334,"Wenchuan, China-53",4.70,mb,0,32.33,105.169,22,2.6,2.5,6.5,1,1,231.8,65,2.6,2.5,90,32.3349,105.1857,20.8,,,,,,,,,,,,,,,,,,,,,,,,,,,,,,,,,,,,,,,,,,,,,,,,,,,,,,,,,,,,,,,,,,,,,,,,,,,,,,,,,,,,,,,,,,,,,,,,,,,
335,"Wenchuan, China-54",4.70,MS,0,31.1,103.48,18,2.2,2.3,5.1,1,1,232,65,2.2,2.3,90,31.0999,103.4937,16.3,,,,,,,,,,,,,,,,,,,,,,,,,,,,,,,,,,,,,,,,,,,,,,,,,,,,,,,,,,,,,,,,,,,,,,,,,,,,,,,,,,,,,,,,,,,,,,,,,,,
336,"Wenchuan, China-55",4.30,MS,0,31.27,103.809,14,1.8,0.8,1.5,1,1,228,35,1.8,0.8,90,31.2745,103.8171,13.9,,,,,,,,,,,,,,,,,,,,,,,,,,,,,,,,,,,,,,,,,,,,,,,,,,,,,,,,,,,,,,,,,,,,,,,,,,,,,,,,,,,,,,,,,,,,,,,,,,,
337,"Wenchuan, China-56",4.80,MS,0,32.22,105.089,9,3.3,1.8,6,1,1,231.9,65,3.3,1.8,90,32.226,105.1068,7.9,,,,,,,,,,,,,,,,,,,,,,,,,,,,,,,,,,,,,,,,,,,,,,,,,,,,,,,,,,,,,,,,,,,,,,,,,,,,,,,,,,,,,,,,,,,,,,,,,,,
338,"Wenchuan, China-57",4.80,MS,0,31.639,104.339,10,3.6,3.3,11.9,1,1,228.1,35,3.6,3.3,90,31.6409,104.371,8.7,,,,,,,,,,,,,,,,,,,,,,,,,,,,,,,,,,,,,,,,,,,,,,,,,,,,,,,,,,,,,,,,,,,,,,,,,,,,,,,,,,,,,,,,,,,,,,,,,,,
339,"Wenchuan, China-58",4.30,MS,0,31.319,104.239,15,1.4,1.7,2.4,1,1,227.8,35,1.4,1.7,90,31.3177,104.2503,14.4,,,,,,,,,,,,,,,,,,,,,,,,,,,,,,,,,,,,,,,,,,,,,,,,,,,,,,,,,,,,,,,,,,,,,,,,,,,,,,,,,,,,,,,,,,,,,,,,,,,
340,"Wenchuan, China-59",4.20,MS,0,32.15,105.059,15,1.1,1.3,1.5,1,1,232.2,65,1.1,1.3,90,32.15,105.0648,14.3,,,,,,,,,,,,,,,,,,,,,,,,,,,,,,,,,,,,,,,,,,,,,,,,,,,,,,,,,,,,,,,,,,,,,,,,,,,,,,,,,,,,,,,,,,,,,,,,,,,
341,"Wenchuan, China-60",5.20,Mw,0,32.759,105.65,15,4.2,4.3,18.4,1,1,245.1,88,4.2,4.3,163,32.7672,105.6729,12.8,,,,,,,,,,,,,,,,,,,,,,,,,,,,,,,,,,,,,,,,,,,,,,,,,,,,,,,,,,,,,,,,,,,,,,,,,,,,,,,,,,,,,,,,,,,,,,,,,,,
342,"Wenchuan, China-61",4.70,MS,0,31.829,104.379,9,2.3,2.8,6.3,1,1,228,35,2.3,2.8,90,31.826,104.3985,8,,,,,,,,,,,,,,,,,,,,,,,,,,,,,,,,,,,,,,,,,,,,,,,,,,,,,,,,,,,,,,,,,,,,,,,,,,,,,,,,,,,,,,,,,,,,,,,,,,,
343,"Wenchuan, China-62",4.30,ML,0,31.03,103.4,25,1.6,1.8,3,1,1,227.9,35,1.6,1.8,90,31.0285,103.415,24.2,,,,,,,,,,,,,,,,,,,,,,,,,,,,,,,,,,,,,,,,,,,,,,,,,,,,,,,,,,,,,,,,,,,,,,,,,,,,,,,,,,,,,,,,,,,,,,,,,,,
344,"Wenchuan, China-63",4.80,MS,0,32.24,105.19,21,2.6,2.9,7.6,1,1,232,65,2.6,2.9,90,32.2413,105.2051,19.4,,,,,,,,,,,,,,,,,,,,,,,,,,,,,,,,,,,,,,,,,,,,,,,,,,,,,,,,,,,,,,,,,,,,,,,,,,,,,,,,,,,,,,,,,,,,,,,,,,,
345,"Wenchuan, China-64",4.40,MS,0,31.19,103.8,13,1.7,1.7,2.9,1,1,228.2,35,1.7,1.7,90,31.1894,103.8136,12.4,,,,,,,,,,,,,,,,,,,,,,,,,,,,,,,,,,,,,,,,,,,,,,,,,,,,,,,,,,,,,,,,,,,,,,,,,,,,,,,,,,,,,,,,,,,,,,,,,,,
346,"Christchurch, New Zealand",6.20,Mw,1,-43.571,172.703,6,7,10,70,1,1,59,67,7,10,135,-43.5577,172.6775,0.5,,,,,,,,,,,,,,,,,,,,,,,,,,,,,,,,,,,,,,,,,,,,,,,,,,,,,,,,,,,,,,,,,,,,,,,,,,,,,,,,,,,,,,,,,,,,,,,,,,,
1001,40204628,5.45,Mw,0,37.43173,-121.77666,7.486,5.7,5.6,31.8,1,1,323,87,5.7,5.6,-180,37.448,-121.7945,4.2552,,,,,,,,,,,,,,,,,,,,,,,,,,,,,,,,,,,,,,,,,,,,,,,,,,,,,,,,,,,,,,,,,,,,,,,,,,,,,,,,,,,,,,,,,,,,,,,,,,,
1002,14383980,5.39,Mw,0,33.9465,-117.7667,14.89,6.3,4.6,29,1,1,296,66,6.3,4.6,146,33.9466,-117.7945,12.3781,,,,,,,,,,,,,,,,,,,,,,,,,,,,,,,,,,,,,,,,,,,,,,,,,,,,,,,,,,,,,,,,,,,,,,,,,,,,,,,,,,,,,,,,,,,,,,,,,,,
1003,14151344,5.20,Mw,0,33.53283,-116.56966,15.48,4.1,3.3,13.5,1,1,304,58,4.1,3.3,172,33.531,-116.5941,13.1756,,,,,,,,,,,,,,,,,,,,,,,,,,,,,,,,,,,,,,,,,,,,,,,,,,,,,,,,,,,,,,,,,,,,,,,,,,,,,,,,,,,,,,,,,,,,,,,,,,,
1004,14346868,5.10,Mw,0,32.4105,-115.312,18.65,4,3.4,13.5,1,1,147,66,4,3.4,-175,32.4052,-115.2942,16.2262,,,,,,,,,,,,,,,,,,,,,,,,,,,,,,,,,,,,,,,,,,,,,,,,,,,,,,,,,,,,,,,,,,,,,,,,,,,,,,,,,,,,,,,,,,,,,,,,,,,
1005,14408052,5.06,Mw,0,34.81183,-116.42267,9.33,3.1,2.9,9.2,1,1,172,79,3.1,2.9,-157,34.7981,-116.4151,6.8864,,,,,,,,,,,,,,,,,,,,,,,,,,,,,,,,,,,,,,,,,,,,,,,,,,,,,,,,,,,,,,,,,,,,,,,,,,,,,,,,,,,,,,,,,,,,,,,,,,,
1006,14095628,5.03,Mw,0,35.3852,-118.6292,7.3,4.1,3.6,14.9,1,1,105,82,4.1,3.6,173,35.3843,-118.6099,4.786,,,,,,,,,,,,,,,,,,,,,,,,,,,,,,,,,,,,,,,,,,,,,,,,,,,,,,,,,,,,,,,,,,,,,,,,,,,,,,,,,,,,,,,,,,,,,,,,,,,
1007,14155260,4.88,ML,0,34.06551,-117.00111,17.501,2.8,2.5,7.1,1,1,298,64,2.8,2.5,148,34.0638,-117.0164,15.7889,,,,,,,,,,,,,,,,,,,,,,,,,,,,,,,,,,,,,,,,,,,,,,,,,,,,,,,,,,,,,,,,,,,,,,,,,,,,,,,,,,,,,,,,,,,,,,,,,,,
1008,21465580,4.77,Mw,0,39.31367,-120.06348,9.697,2.8,2.5,7,1,1,320,78,2.8,2.5,180,39.32,-120.0763,7.8557,,,,,,,,,,,,,,,,,,,,,,,,,,,,,,,,,,,,,,,,,,,,,,,,,,,,,,,,,,,,,,,,,,,,,,,,,,,,,,,,,,,,,,,,,,,,,,,,,,,
1009,14462064,4.73,ML,0,36.40113,-117.8397,7.419,2.6,1.8,4.6,1,1,338,83,2.6,1.8,-178,36.411,-117.847,5.8244,,,,,,,,,,,,,,,,,,,,,,,,,,,,,,,,,,,,,,,,,,,,,,,,,,,,,,,,,,,,,,,,,,,,,,,,,,,,,,,,,,,,,,,,,,,,,,,,,,,
1010,9086596,4.93,ML,0,34.06693,-116.36806,2.241,3.1,3.4,10.5,1,1,336,72,3.1,3.4,162,34.0771,-116.3807,0.3924,,,,,,,,,,,,,,,,,,,,,,,,,,,,,,,,,,,,,,,,,,,,,,,,,,,,,,,,,,,,,,,,,,,,,,,,,,,,,,,,,,,,,,,,,,,,,,,,,,,
1011,10410337,4.70,ML,0,33.92746,-118.35364,11.588,2.2,1.8,3.9,1,1,327,83,2.2,1.8,-158,33.9338,-118.361,10.1062,,,,,,,,,,,,,,,,,,,,,,,,,,,,,,,,,,,,,,,,,,,,,,,,,,,,,,,,,,,,,,,,,,,,,,,,,,,,,,,,,,,,,,,,,,,,,,,,,,,
1012,14186612,4.69,ML,0,35.01725,-119.02466,9.251,2.6,2.7,7.1,1,1,59,28,2.6,2.7,46,35.0334,-119.0221,8.4948,,,,,,,,,,,,,,,,,,,,,,,,,,,,,,,,,,,,,,,,,,,,,,,,,,,,,,,,,,,,,,,,,,,,,,,,,,,,,,,,,,,,,,,,,,,,,,,,,,,
1013,51182810,4.60,Mw,0,37.52547,-118.86124,10.217,2.4,2.5,6,1,1,311,76,2.4,2.5,175,37.5288,-118.8723,8.7688,,,,,,,,,,,,,,,,,,,,,,,,,,,,,,,,,,,,,,,,,,,,,,,,,,,,,,,,,,,,,,,,,,,,,,,,,,,,,,,,,,,,,,,,,,,,,,,,,,,
1014,14138080,4.59,ML,0,34.99775,-119.19263,10.662,2.2,2.5,5.4,1,1,177,35,2.2,2.5,-128,34.9875,-119.1735,9.4868,,,,,,,,,,,,,,,,,,,,,,,,,,,,,,,,,,,,,,,,,,,,,,,,,,,,,,,,,,,,,,,,,,,,,,,,,,,,,,,,,,,,,,,,,,,,,,,,,,,
1015,9753485,4.18,ML,0,34.36166,-118.66371,11.151,1.9,1.1,2.1,1,1,102,55,1.9,1.1,101,34.3646,-118.6539,10.4304,,,,,,,,,,,,,,,,,,,,,,,,,,,,,,,,,,,,,,,,,,,,,,,,,,,,,,,,,,,,,,,,,,,,,,,,,,,,,,,,,,,,,,,,,,,,,,,,,,,
1016,9983429,4.34,ML,0,35.01736,-119.14922,9.557,1.9,1.5,2.8,1,1,106,56,1.9,1.5,160,35.0216,-119.14,8.5504,,,,,,,,,,,,,,,,,,,,,,,,,,,,,,,,,,,,,,,,,,,,,,,,,,,,,,,,,,,,,,,,,,,,,,,,,,,,,,,,,,,,,,,,,,,,,,,,,,,
1017,10347253,4.63,ML,0,32.33617,-115.2425,17.16,2.4,2.6,6.4,1,1,140,40,2.4,2.6,167,32.337,-115.2258,16.0994,,,,,,,,,,,,,,,,,,,,,,,,,,,,,,,,,,,,,,,,,,,,,,,,,,,,,,,,,,,,,,,,,,,,,,,,,,,,,,,,,,,,,,,,,,,,,,,,,,,
1018,10370141,4.45,ML,0,34.10807,-117.30616,14.795,1.7,1.6,2.7,1,1,349,60,1.7,1.6,165,34.1147,-117.3137,13.8586,,,,,,,,,,,,,,,,,,,,,,,,,,,,,,,,,,,,,,,,,,,,,,,,,,,,,,,,,,,,,,,,,,,,,,,,,,,,,,,,,,,,,,,,,,,,,,,,,,,
1019,14312160,4.66,ML,0,34.2983,-118.6255,8.038,3.1,2.7,8.5,1,1,111,42,3.1,2.7,97,34.3042,-118.6081,6.9745,,,,,,,,,,,,,,,,,,,,,,,,,,,,,,,,,,,,,,,,,,,,,,,,,,,,,,,,,,,,,,,,,,,,,,,,,,,,,,,,,,,,,,,,,,,,,,,,,,,
1020,14295640,4.26,ML,0,33.87761,-116.20193,10.062,1.9,1.7,3.3,1,1,334,83,1.9,1.7,-176,33.8843,-116.2072,9.125,,,,,,,,,,,,,,,,,,,,,,,,,,,,,,,,,,,,,,,,,,,,,,,,,,,,,,,,,,,,,,,,,,,,,,,,,,,,,,,,,,,,,,,,,,,,,,,,,,,
1021,21522424,4.30,Mw,0,37.09949,-121.49092,3.361,1.6,1,1.6,1,1,358,78,1.6,1,-155,37.1073,-121.4931,2.585,,,,,,,,,,,,,,,,,,,,,,,,,,,,,,,,,,,,,,,,,,,,,,,,,,,,,,,,,,,,,,,,,,,,,,,,,,,,,,,,,,,,,,,,,,,,,,,,,,,
1022,21422178,4.35,Mw,0,36.6065,-121.21014,6.13,2.1,1.1,2.4,1,1,132,82,2.1,1.1,177,36.6012,-121.2003,5.0485,,,,,,,,,,,,,,,,,,,,,,,,,,,,,,,,,,,,,,,,,,,,,,,,,,,,,,,,,,,,,,,,,,,,,,,,,,,,,,,,,,,,,,,,,,,,,,,,,,,
1023,21530368,4.50,Mw,0,38.36691,-122.58808,6.985,2.2,1.7,3.8,1,1,166,69,2.2,1.7,-178,38.3575,-122.5797,5.7979,,,,,,,,,,,,,,,,,,,,,,,,,,,,,,,,,,,,,,,,,,,,,,,,,,,,,,,,,,,,,,,,,,,,,,,,,,,,,,,,,,,,,,,,,,,,,,,,,,,
1024,21149422,4.40,Mw,0,37.33139,-121.69854,6.957,1.7,1.2,2,1,1,326,74,1.7,1.2,179,37.3366,-121.7069,5.9303,,,,,,,,,,,,,,,,,,,,,,,,,,,,,,,,,,,,,,,,,,,,,,,,,,,,,,,,,,,,,,,,,,,,,,,,,,,,,,,,,,,,,,,,,,,,,,,,,,,
1025,10403777,4.42,ML,0,34.06654,-118.89381,12.827,1.8,1.5,2.8,1,1,170,60,1.8,1.5,164,34.0598,-118.887,11.9826,,,,,,,,,,,,,,,,,,,,,,,,,,,,,,,,,,,,,,,,,,,,,,,,,,,,,,,,,,,,,,,,,,,,,,,,,,,,,,,,,,,,,,,,,,,,,,,,,,,
1026,40238431,4.39,Mw,0,35.64212,-120.9543,5.902,2,1.5,3,1,1,267,86,2,1.5,28,35.6411,-120.9629,4.8002,,,,,,,,,,,,,,,,,,,,,,,,,,,,,,,,,,,,,,,,,,,,,,,,,,,,,,,,,,,,,,,,,,,,,,,,,,,,,,,,,,,,,,,,,,,,,,,,,,,
1027,9064093,4.78,ML,0,34.12281,-116.92262,5.969,2.7,1.8,4.9,1,1,146,81,2.7,1.8,-166,34.1136,-116.9117,4.3004,,,,,,,,,,,,,,,,,,,,,,,,,,,,,,,,,,,,,,,,,,,,,,,,,,,,,,,,,,,,,,,,,,,,,,,,,,,,,,,,,,,,,,,,,,,,,,,,,,,
1028,10275733,4.73,ML,0,33.7328,-117.49212,10.018,2.8,2.3,6.5,1,1,310,68,2.8,2.3,170,33.7351,-117.5052,8.5752,,,,,,,,,,,,,,,,,,,,,,,,,,,,,,,,,,,,,,,,,,,,,,,,,,,,,,,,,,,,,,,,,,,,,,,,,,,,,,,,,,,,,,,,,,,,,,,,,,,
1029,9154141,4.51,ML,0,32.88817,-115.50183,9.4,2.1,2.2,4.5,1,1,229,30,2.1,2.2,-74,32.8711,-115.4985,8.4531,,,,,,,,,,,,,,,,,,,,,,,,,,,,,,,,,,,,,,,,,,,,,,,,,,,,,,,,,,,,,,,,,,,,,,,,,,,,,,,,,,,,,,,,,,,,,,,,,,,
1030,21262721,4.30,Mw,0,36.80594,-121.39016,7.258,1.6,1.8,2.8,1,1,152,83,1.6,1.8,-166,36.801,-121.3855,6.3648,,,,,,,,,,,,,,,,,,,,,,,,,,,,,,,,,,,,,,,,,,,,,,,,,,,,,,,,,,,,,,,,,,,,,,,,,,,,,,,,,,,,,,,,,,,,,,,,,,,
1031,21350824,4.25,Mw,0,36.80491,-121.51341,3.694,1.5,1.9,2.9,1,1,132,80,1.5,1.9,-169,36.8021,-121.506,2.4976,,,,,,,,,,,,,,,,,,,,,,,,,,,,,,,,,,,,,,,,,,,,,,,,,,,,,,,,,,,,,,,,,,,,,,,,,,,,,,,,,,,,,,,,,,,,,,,,,,,
1032,51183708,4.20,Mw,0,36.88321,-121.619,7.507,1.8,1.5,2.8,1,1,135,89,1.8,1.5,172,36.8777,-121.6119,6.62,,,,,,,,,,,,,,,,,,,,,,,,,,,,,,,,,,,,,,,,,,,,,,,,,,,,,,,,,,,,,,,,,,,,,,,,,,,,,,,,,,,,,,,,,,,,,,,,,,,
1033,40234037,4.30,Mw,0,37.27932,-121.61906,3.442,1.6,2.3,3.6,1,1,259,76,1.6,2.3,1,37.273,-121.6173,2.3986,,,,,,,,,,,,,,,,,,,,,,,,,,,,,,,,,,,,,,,,,,,,,,,,,,,,,,,,,,,,,,,,,,,,,,,,,,,,,,,,,,,,,,,,,,,,,,,,,,,
1034,9069997,4.50,-999,0,34.3365,-116.8617,8.94,2.4,1.3,3.1,1,1,-999,-999,2.4,1.3,-999,34.3307,-116.8541,7.8055,,,,,,,,,,,,,,,,,,,,,,,,,,,,,,,,,,,,,,,,,,,,,,,,,,,,,,,,,,,,,,,,,,,,,,,,,,,,,,,,,,,,,,,,,,,,,,,,,,,
1035,9173365,4.26,ML,0,34.2844,-118.41287,8.031,1.7,1.5,2.5,1,1,126,35,1.7,1.5,85,34.2869,-118.4016,7.4461,,,,,,,,,,,,,,,,,,,,,,,,,,,,,,,,,,,,,,,,,,,,,,,,,,,,,,,,,,,,,,,,,,,,,,,,,,,,,,,,,,,,,,,,,,,,,,,,,,,
1036,9703873,4.24,ML,0,34.05412,-118.39287,7.289,1.4,1.8,2.4,1,1,353,83,1.4,1.8,-167,34.0597,-118.3951,6.2185,,,,,,,,,,,,,,,,,,,,,,,,,,,,,,,,,,,,,,,,,,,,,,,,,,,,,,,,,,,,,,,,,,,,,,,,,,,,,,,,,,,,,,,,,,,,,,,,,,,
1037,10006857,4.40,ML,0,34.42816,-119.97869,8.628,1.7,2,3.5,1,1,118,50,1.7,2,167,34.4323,-119.9675,7.5668,,,,,,,,,,,,,,,,,,,,,,,,,,,,,,,,,,,,,,,,,,,,,,,,,,,,,,,,,,,,,,,,,,,,,,,,,,,,,,,,,,,,,,,,,,,,,,,,,,,
1038,14077668,4.27,ML,0,34.38737,-119.43977,6.219,1.7,1.5,2.5,1,1,254,23,1.7,1.5,80,34.3774,-119.4428,5.798,,,,,,,,,,,,,,,,,,,,,,,,,,,,,,,,,,,,,,,,,,,,,,,,,,,,,,,,,,,,,,,,,,,,,,,,,,,,,,,,,,,,,,,,,,,,,,,,,,,
1039,9140050,4.37,ML,0,34.05594,-117.24416,15.833,2,3.1,6.4,1,1,-999,-999,2,3.1,-999,34.0658,-117.2468,14.8134,,,,,,,,,,,,,,,,,,,,,,,,,,,,,,,,,,,,,,,,,,,,,,,,,,,,,,,,,,,,,,,,,,,,,,,,,,,,,,,,,,,,,,,,,,,,,,,,,,,
1040,14116972,4.42,ML,0,34.12718,-117.44591,4.569,2.1,2,4.2,1,1,307,72,2.1,2,173,34.1299,-117.4573,3.3507,,,,,,,,,,,,,,,,,,,,,,,,,,,,,,,,,,,,,,,,,,,,,,,,,,,,,,,,,,,,,,,,,,,,,,,,,,,,,,,,,,,,,,,,,,,,,,,,,,,
1041,21511951,4.20,ML,0,35.7241,-121.09512,7.275,1.7,1.2,2,1,1,135,45,1.7,1.2,115,35.7218,-121.1042,6.7756,,,,,,,,,,,,,,,,,,,,,,,,,,,,,,,,,,,,,,,,,,,,,,,,,,,,,,,,,,,,,,,,,,,,,,,,,,,,,,,,,,,,,,,,,,,,,,,,,,,
1042,9171679,4.42,ML,0,34.89267,-119.02917,16.97,2.1,1.9,4,1,1,106,87,2.1,1.9,154,34.8908,-119.0188,15.8444,,,,,,,,,,,,,,,,,,,,,,,,,,,,,,,,,,,,,,,,,,,,,,,,,,,,,,,,,,,,,,,,,,,,,,,,,,,,,,,,,,,,,,,,,,,,,,,,,,,
1043,30225889,4.12,Mw,0,38.45889,-122.7048,3.462,1.5,1.1,1.6,1,1,151,84,1.5,1.1,-175,38.4543,-122.7,2.3743,,,,,,,,,,,,,,,,,,,,,,,,,,,,,,,,,,,,,,,,,,,,,,,,,,,,,,,,,,,,,,,,,,,,,,,,,,,,,,,,,,,,,,,,,,,,,,,,,,,
1044,21455182,4.14,Mw,0,38.37221,-122.14191,5.73,1.4,1.3,1.8,1,1,171,77,1.4,1.3,178,38.3661,-122.1383,4.8515,,,,,,,,,,,,,,,,,,,,,,,,,,,,,,,,,,,,,,,,,,,,,,,,,,,,,,,,,,,,,,,,,,,,,,,,,,,,,,,,,,,,,,,,,,,,,,,,,,,
1045,40199209,4.20,Mw,0,37.80561,-122.18527,4.131,1.7,1.2,2.1,1,1,144,82,1.7,1.2,-176,37.8004,-122.1787,3.2234,,,,,,,,,,,,,,,,,,,,,,,,,,,,,,,,,,,,,,,,,,,,,,,,,,,,,,,,,,,,,,,,,,,,,,,,,,,,,,,,,,,,,,,,,,,,,,,,,,,
1046,40194055,4.23,Mw,0,37.90103,-122.10381,14.378,1.3,1.5,1.9,1,1,85,87,1.3,1.5,0,37.8943,-122.1031,13.414,,,,,,,,,,,,,,,,,,,,,,,,,,,,,,,,,,,,,,,,,,,,,,,,,,,,,,,,,,,,,,,,,,,,,,,,,,,,,,,,,,,,,,,,,,,,,,,,,,,
1047,10321585,4.43,ML,0,35.47443,-118.42621,6.678,2.3,2.2,5.2,1,1,293,86,2.3,2.2,-164,35.4776,-118.4377,5.5719,,,,,,,,,,,,,,,,,,,,,,,,,,,,,,,,,,,,,,,,,,,,,,,,,,,,,,,,,,,,,,,,,,,,,,,,,,,,,,,,,,,,,,,,,,,,,,,,,,,
1048,14169456,4.27,ML,0,36.14661,-118.06126,4.057,1.8,1.5,2.6,1,1,145,87,1.8,1.5,-162,36.1406,-118.0553,3.0384,,,,,,,,,,,,,,,,,,,,,,,,,,,,,,,,,,,,,,,,,,,,,,,,,,,,,,,,,,,,,,,,,,,,,,,,,,,,,,,,,,,,,,,,,,,,,,,,,,,
1049,21266207,4.00,Mw,0,37.73376,-121.93543,14.029,1.1,1.2,1.4,1,1,159,72,1.1,1.2,-170,37.729,-121.9303,13.3207,,,,,,,,,,,,,,,,,,,,,,,,,,,,,,,,,,,,,,,,,,,,,,,,,,,,,,,,,,,,,,,,,,,,,,,,,,,,,,,,,,,,,,,,,,,,,,,,,,,
1050,21437727,4.18,Mw,0,37.39311,-121.48599,8.483,1.5,1.2,1.7,1,1,326,84,1.5,1.2,178,37.3983,-121.4917,7.6142,,,,,,,,,,,,,,,,,,,,,,,,,,,,,,,,,,,,,,,,,,,,,,,,,,,,,,,,,,,,,,,,,,,,,,,,,,,,,,,,,,,,,,,,,,,,,,,,,,,
1051,51207740,4.10,Mw,0,37.86204,-121.99954,13.322,1.5,0.8,1.2,1,1,157,86,1.5,0.8,180,37.8562,-121.9957,12.558,,,,,,,,,,,,,,,,,,,,,,,,,,,,,,,,,,,,,,,,,,,,,,,,,,,,,,,,,,,,,,,,,,,,,,,,,,,,,,,,,,,,,,,,,,,,,,,,,,,
1052,14403732,4.11,ML,0,33.50886,-116.84855,12.274,1.7,1.1,1.8,1,1,314,87,1.7,1.1,-164,33.5135,-116.855,11.3727,,,,,,,,,,,,,,,,,,,,,,,,,,,,,,,,,,,,,,,,,,,,,,,,,,,,,,,,,,,,,,,,,,,,,,,,,,,,,,,,,,,,,,,,,,,,,,,,,,,
1053,14330056,4.34,ML,0,35.83733,-117.67802,6.864,1.5,1.7,2.6,1,1,167,51,1.5,1.7,-150,35.8331,-117.6659,5.6834,,,,,,,,,,,,,,,,,,,,,,,,,,,,,,,,,,,,,,,,,,,,,,,,,,,,,,,,,,,,,,,,,,,,,,,,,,,,,,,,,,,,,,,,,,,,,,,,,,,
1054,14118096,4.26,ML,0,33.95382,-116.39124,7.696,1.6,0.9,1.5,1,1,339,87,1.6,0.9,172,33.9607,-116.3949,6.8152,,,,,,,,,,,,,,,,,,,,,,,,,,,,,,,,,,,,,,,,,,,,,,,,,,,,,,,,,,,,,,,,,,,,,,,,,,,,,,,,,,,,,,,,,,,,,,,,,,,
1055,9128775,3.81,ML,0,34.10528,-117.00475,2.878,1.2,0.7,0.8,1,1,317,85,1.2,0.7,-176,34.1084,-117.009,2.3227,,,,,,,,,,,,,,,,,,,,,,,,,,,,,,,,,,,,,,,,,,,,,,,,,,,,,,,,,,,,,,,,,,,,,,,,,,,,,,,,,,,,,,,,,,,,,,,,,,,
1056,14073800,4.02,ML,0,33.71292,-116.05158,12.808,1.4,1.3,1.8,1,1,314,54,1.4,1.3,174,33.7135,-116.0597,12.1541,,,,,,,,,,,,,,,,,,,,,,,,,,,,,,,,,,,,,,,,,,,,,,,,,,,,,,,,,,,,,,,,,,,,,,,,,,,,,,,,,,,,,,,,,,,,,,,,,,,
1057,14282008,4.11,ML,0,36.0312,-117.7658,4.03,1.2,1.4,1.7,1,1,13,82,1.2,1.4,-91,36.0369,-117.766,2.9262,,,,,,,,,,,,,,,,,,,,,,,,,,,,,,,,,,,,,,,,,,,,,,,,,,,,,,,,,,,,,,,,,,,,,,,,,,,,,,,,,,,,,,,,,,,,,,,,,,,
1058,14285168,4.41,ML,0,32.707,-116.04,10.16,2,1.5,3,1,1,125,77,2,1.5,172,32.705,-116.0315,8.9873,,,,,,,,,,,,,,,,,,,,,,,,,,,,,,,,,,,,,,,,,,,,,,,,,,,,,,,,,,,,,,,,,,,,,,,,,,,,,,,,,,,,,,,,,,,,,,,,,,,
1059,30226086,4.00,Mw,0,38.67809,-122.91215,3.48,1.4,1,1.3,1,1,313,89,1.4,1,-171,38.6815,-122.917,2.7716,,,,,,,,,,,,,,,,,,,,,,,,,,,,,,,,,,,,,,,,,,,,,,,,,,,,,,,,,,,,,,,,,,,,,,,,,,,,,,,,,,,,,,,,,,,,,,,,,,,
1060,21305648,4.00,Mw,0,37.84403,-122.22216,10.021,1.2,1.5,1.8,1,1,144,77,1.2,1.5,-178,37.8408,-122.2167,9.2316,,,,,,,,,,,,,,,,,,,,,,,,,,,,,,,,,,,,,,,,,,,,,,,,,,,,,,,,,,,,,,,,,,,,,,,,,,,,,,,,,,,,,,,,,,,,,,,,,,,
1061,30192424,4.11,-999,0,34.373,-117.6258,8.33,1.6,1.6,2.5,1,1,-999,-999,1.6,1.6,-999,34.3641,-117.6294,7.5936,,,,,,,,,,,,,,,,,,,,,,,,,,,,,,,,,,,,,,,,,,,,,,,,,,,,,,,,,,,,,,,,,,,,,,,,,,,,,,,,,,,,,,,,,,,,,,,,,,,
1062,14146956,4.06,ML,0,33.23937,-116.20818,10.532,1.2,1.7,2,1,1,322,83,1.2,1.7,-175,33.2434,-116.2134,9.6498,,,,,,,,,,,,,,,,,,,,,,,,,,,,,,,,,,,,,,,,,,,,,,,,,,,,,,,,,,,,,,,,,,,,,,,,,,,,,,,,,,,,,,,,,,,,,,,,,,,
1063,10223765,4.11,ML,0,33.7104,-116.04568,12.559,1.4,1,1.3,1,1,311,68,1.4,1,165,33.7118,-116.0531,11.7392,,,,,,,,,,,,,,,,,,,,,,,,,,,,,,,,,,,,,,,,,,,,,,,,,,,,,,,,,,,,,,,,,,,,,,,,,,,,,,,,,,,,,,,,,,,,,,,,,,,
1064,10059745,4.19,ML,0,34.35712,-116.84176,9.486,1.5,2,2.9,1,1,145,74,1.5,2,157,34.354,-116.8359,8.6373,,,,,,,,,,,,,,,,,,,,,,,,,,,,,,,,,,,,,,,,,,,,,,,,,,,,,,,,,,,,,,,,,,,,,,,,,,,,,,,,,,,,,,,,,,,,,,,,,,,
1065,10285533,4.20,ML,0,34.37681,-117.64609,8.934,1.6,1.1,1.7,1,1,314,63,1.6,1.1,144,34.3782,-117.6549,8.0473,,,,,,,,,,,,,,,,,,,,,,,,,,,,,,,,,,,,,,,,,,,,,,,,,,,,,,,,,,,,,,,,,,,,,,,,,,,,,,,,,,,,,,,,,,,,,,,,,,,
1066,9941081,3.90,ML,0,34.40323,-118.65096,13.612,1.1,0.9,1,1,1,188,23,1.1,0.9,13,34.3985,-118.645,13.3493,,,,,,,,,,,,,,,,,,,,,,,,,,,,,,,,,,,,,,,,,,,,,,,,,,,,,,,,,,,,,,,,,,,,,,,,,,,,,,,,,,,,,,,,,,,,,,,,,,,
1067,10230869,4.29,ML,0,33.2262,-116.14725,10.889,2,1.5,3,1,1,313,71,2,1.5,-170,33.2299,-116.1563,10.0986,,,,,,,,,,,,,,,,,,,,,,,,,,,,,,,,,,,,,,,,,,,,,,,,,,,,,,,,,,,,,,,,,,,,,,,,,,,,,,,,,,,,,,,,,,,,,,,,,,,
1068,10276197,4.06,ML,0,32.77966,-117.35069,7.174,1,0.8,0.8,1,1,354,89,1,0.8,151,32.7848,-117.3515,6.4255,,,,,,,,,,,,,,,,,,,,,,,,,,,,,,,,,,,,,,,,,,,,,,,,,,,,,,,,,,,,,,,,,,,,,,,,,,,,,,,,,,,,,,,,,,,,,,,,,,,
1069,30225187,3.90,Mw,0,37.75676,-121.94775,7.856,1.6,0.7,1.1,1,1,242,87,1.6,0.7,-17,37.7538,-121.9541,7.2471,,,,,,,,,,,,,,,,,,,,,,,,,,,,,,,,,,,,,,,,,,,,,,,,,,,,,,,,,,,,,,,,,,,,,,,,,,,,,,,,,,,,,,,,,,,,,,,,,,,
1070,51203773,3.96,Mw,0,38.23865,-122.1711,5.49,1.1,2.2,2.5,1,1,154,84,1.1,2.2,171,38.2349,-122.1677,4.7253,,,,,,,,,,,,,,,,,,,,,,,,,,,,,,,,,,,,,,,,,,,,,,,,,,,,,,,,,,,,,,,,,,,,,,,,,,,,,,,,,,,,,,,,,,,,,,,,,,,
1071,40219867,3.90,Mw,0,37.58927,-118.8176,11.872,1.3,1.2,1.6,1,1,86,58,1.3,1.2,-172,37.5944,-118.8199,10.9726,,,,,,,,,,,,,,,,,,,,,,,,,,,,,,,,,,,,,,,,,,,,,,,,,,,,,,,,,,,,,,,,,,,,,,,,,,,,,,,,,,,,,,,,,,,,,,,,,,,
1072,9735129,3.97,ML,0,33.95354,-117.74572,11.873,1.1,1.4,1.6,1,1,137,82,1.1,1.4,178,33.9515,-117.7417,11.0537,,,,,,,,,,,,,,,,,,,,,,,,,,,,,,,,,,,,,,,,,,,,,,,,,,,,,,,,,,,,,,,,,,,,,,,,,,,,,,,,,,,,,,,,,,,,,,,,,,,
1073,9096960,1.30,ML,0,34.3922,-118.6127,7.9,1.2,1.1,1.3,1,1,-999,-999,1.2,1.1,-999,34.3982,-118.6068,7.5777,,,,,,,,,,,,,,,,,,,,,,,,,,,,,,,,,,,,,,,,,,,,,,,,,,,,,,,,,,,,,,,,,,,,,,,,,,,,,,,,,,,,,,,,,,,,,,,,,,,
1074,10295849,4.06,ML,0,34.16138,-116.98721,11.361,1.6,1.5,2.4,1,1,117,80,1.6,1.5,165,34.1594,-116.9796,10.6914,,,,,,,,,,,,,,,,,,,,,,,,,,,,,,,,,,,,,,,,,,,,,,,,,,,,,,,,,,,,,,,,,,,,,,,,,,,,,,,,,,,,,,,,,,,,,,,,,,,
1075,14201764,4.17,ML,0,34.32767,-116.82902,4.957,1.6,1.2,1.9,1,1,147,85,1.6,1.2,-161,34.3237,-116.8251,4.2762,,,,,,,,,,,,,,,,,,,,,,,,,,,,,,,,,,,,,,,,,,,,,,,,,,,,,,,,,,,,,,,,,,,,,,,,,,,,,,,,,,,,,,,,,,,,,,,,,,,
1076,10972299,3.79,ML,0,34.2691,-117.46082,11.018,1.2,0.9,1,1,1,306,40,1.2,0.9,96,34.2684,-117.4691,10.5919,,,,,,,,,,,,,,,,,,,,,,,,,,,,,,,,,,,,,,,,,,,,,,,,,,,,,,,,,,,,,,,,,,,,,,,,,,,,,,,,,,,,,,,,,,,,,,,,,,,
1077,9096656,4.15,ML,0,33.63803,-116.70824,12.649,1.6,0.9,1.5,1,1,311,80,1.6,0.9,150,33.6408,-116.7147,11.7379,,,,,,,,,,,,,,,,,,,,,,,,,,,,,,,,,,,,,,,,,,,,,,,,,,,,,,,,,,,,,,,,,,,,,,,,,,,,,,,,,,,,,,,,,,,,,,,,,,,
1078,30226539,3.70,Mw,0,37.21334,-121.65867,4.998,0.9,0.9,0.8,1,1,310,37,0.9,0.9,81,37.2129,-121.6652,4.6891,,,,,,,,,,,,,,,,,,,,,,,,,,,,,,,,,,,,,,,,,,,,,,,,,,,,,,,,,,,,,,,,,,,,,,,,,,,,,,,,,,,,,,,,,,,,,,,,,,,
1079,21510121,3.70,Mw,0,37.80769,-122.07066,11.554,1,0.9,0.9,1,1,49,85,1,0.9,-1,37.8045,-122.0671,11.1211,,,,,,,,,,,,,,,,,,,,,,,,,,,,,,,,,,,,,,,,,,,,,,,,,,,,,,,,,,,,,,,,,,,,,,,,,,,,,,,,,,,,,,,,,,,,,,,,,,,
1080,21549695,3.80,Mw,0,35.63205,-120.75317,6.775,1.2,0.8,0.9,1,1,333,85,1.2,0.8,-180,35.6363,-120.7564,6.2789,,,,,,,,,,,,,,,,,,,,,,,,,,,,,,,,,,,,,,,,,,,,,,,,,,,,,,,,,,,,,,,,,,,,,,,,,,,,,,,,,,,,,,,,,,,,,,,,,,,
1081,40219463,3.80,Mw,0,36.68148,-121.30919,5.568,1.1,1,1.1,1,1,131,66,1.1,1,-178,36.6808,-121.3038,4.9854,,,,,,,,,,,,,,,,,,,,,,,,,,,,,,,,,,,,,,,,,,,,,,,,,,,,,,,,,,,,,,,,,,,,,,,,,,,,,,,,,,,,,,,,,,,,,,,,,,,
1082,3321584,3.81,ML,0,33.82039,-117.71449,10.077,1,0.9,1,1,1,304,87,1,0.9,-177,33.8225,-117.7188,9.454,,,,,,,,,,,,,,,,,,,,,,,,,,,,,,,,,,,,,,,,,,,,,,,,,,,,,,,,,,,,,,,,,,,,,,,,,,,,,,,,,,,,,,,,,,,,,,,,,,,
1083,9968525,3.69,ML,0,34.76967,-120.49934,10.11,0.7,0.7,0.5,1,1,164,77,0.7,0.7,178,34.7669,-120.4972,9.6495,,,,,,,,,,,,,,,,,,,,,,,,,,,,,,,,,,,,,,,,,,,,,,,,,,,,,,,,,,,,,,,,,,,,,,,,,,,,,,,,,,,,,,,,,,,,,,,,,,,
1084,14239764,4.02,ML,0,36.07347,-117.89474,7.001,1.2,1.2,1.4,1,1,309,40,1.2,1.2,-178,36.0724,-117.9029,6.5375,,,,,,,,,,,,,,,,,,,,,,,,,,,,,,,,,,,,,,,,,,,,,,,,,,,,,,,,,,,,,,,,,,,,,,,,,,,,,,,,,,,,,,,,,,,,,,,,,,,
1085,14137160,3.94,ML,0,32.72187,-116.81331,20.237,1.3,1.5,1.8,1,1,318,85,1.3,1.5,175,32.726,-116.8186,19.5424,,,,,,,,,,,,,,,,,,,,,,,,,,,,,,,,,,,,,,,,,,,,,,,,,,,,,,,,,,,,,,,,,,,,,,,,,,,,,,,,,,,,,,,,,,,,,,,,,,,
1086,10321561,4.19,ML,0,33.44534,-116.43904,8.875,1.6,1,1.7,1,1,316,65,1.6,1,168,33.4474,-116.448,7.9423,,,,,,,,,,,,,,,,,,,,,,,,,,,,,,,,,,,,,,,,,,,,,,,,,,,,,,,,,,,,,,,,,,,,,,,,,,,,,,,,,,,,,,,,,,,,,,,,,,,
1087,21251334,3.80,ML,0,36.81403,-121.52489,4.262,1,0.9,0.9,1,1,-999,-999,1,0.9,-999,36.8141,-121.5304,3.8443,,,,,,,,,,,,,,,,,,,,,,,,,,,,,,,,,,,,,,,,,,,,,,,,,,,,,,,,,,,,,,,,,,,,,,,,,,,,,,,,,,,,,,,,,,,,,,,,,,,
1088,10319993,4.14,ML,0,34.86323,-116.34442,6.474,1.3,1.2,1.6,1,1,350,85,1.3,1.2,-166,34.8693,-116.3467,5.519,,,,,,,,,,,,,,,,,,,,,,,,,,,,,,,,,,,,,,,,,,,,,,,,,,,,,,,,,,,,,,,,,,,,,,,,,,,,,,,,,,,,,,,,,,,,,,,,,,,
1089,10207681,4.05,ML,0,32.70909,-116.0396,7.817,1.6,1,1.6,1,1,140,69,1.6,1,-167,32.7055,-116.0319,7.0538,,,,,,,,,,,,,,,,,,,,,,,,,,,,,,,,,,,,,,,,,,,,,,,,,,,,,,,,,,,,,,,,,,,,,,,,,,,,,,,,,,,,,,,,,,,,,,,,,,,
1090,14255632,4.01,ML,0,33.26167,-116.0659,5.761,1.2,1.1,1.3,1,1,114,86,1.2,1.1,-146,33.2604,-116.0606,4.7698,,,,,,,,,,,,,,,,,,,,,,,,,,,,,,,,,,,,,,,,,,,,,,,,,,,,,,,,,,,,,,,,,,,,,,,,,,,,,,,,,,,,,,,,,,,,,,,,,,,
1091,9655209,3.78,ML,0,34.02943,-116.75345,14.93,1.2,0.8,1,1,1,295,59,1.2,0.8,157,34.0294,-116.76,14.4968,,,,,,,,,,,,,,,,,,,,,,,,,,,,,,,,,,,,,,,,,,,,,,,,,,,,,,,,,,,,,,,,,,,,,,,,,,,,,,,,,,,,,,,,,,,,,,,,,,,
1092,21508102,3.70,ML,0,39.03926,-123.12198,5.099,0.8,0.6,0.4,1,1,-999,-999,0.8,0.6,-999,39.0425,-123.1239,4.5784,,,,,,,,,,,,,,,,,,,,,,,,,,,,,,,,,,,,,,,,,,,,,,,,,,,,,,,,,,,,,,,,,,,,,,,,,,,,,,,,,,,,,,,,,,,,,,,,,,,
1093,14219360,4.11,ML,0,35.62106,-117.58047,9.045,1.4,1.2,1.7,1,1,165,87,1.4,1.2,176,35.6144,-117.5778,8.2372,,,,,,,,,,,,,,,,,,,,,,,,,,,,,,,,,,,,,,,,,,,,,,,,,,,,,,,,,,,,,,,,,,,,,,,,,,,,,,,,,,,,,,,,,,,,,,,,,,,
1094,10299017,3.90,ML,0,35.34295,-118.56446,9.906,1.1,0.8,0.9,1,1,306,80,1.1,0.8,-175,35.3448,-118.5699,9.2224,,,,,,,,,,,,,,,,,,,,,,,,,,,,,,,,,,,,,,,,,,,,,,,,,,,,,,,,,,,,,,,,,,,,,,,,,,,,,,,,,,,,,,,,,,,,,,,,,,,
1095,9652545,3.84,ML,0,34.22682,-117.44066,8.593,1.2,1,1.2,1,1,135,90,1.2,1,-179,34.2229,-117.4359,7.9466,,,,,,,,,,,,,,,,,,,,,,,,,,,,,,,,,,,,,,,,,,,,,,,,,,,,,,,,,,,,,,,,,,,,,,,,,,,,,,,,,,,,,,,,,,,,,,,,,,,
1096,21339029,3.58,Mw,0,37.1033,-121.56452,6.483,0.8,0.8,0.6,1,1,223,55,0.8,0.8,-8,37.1051,-121.5678,5.7505,,,,,,,,,,,,,,,,,,,,,,,,,,,,,,,,,,,,,,,,,,,,,,,,,,,,,,,,,,,,,,,,,,,,,,,,,,,,,,,,,,,,,,,,,,,,,,,,,,,
1097,21397674,3.67,Mw,0,36.80603,-121.52508,8.082,0.9,1,0.9,1,1,145,60,0.9,1,-176,36.8047,-121.52,7.5773,,,,,,,,,,,,,,,,,,,,,,,,,,,,,,,,,,,,,,,,,,,,,,,,,,,,,,,,,,,,,,,,,,,,,,,,,,,,,,,,,,,,,,,,,,,,,,,,,,,
1098,21414391,3.68,Mw,0,36.96589,-121.59428,6.068,1.1,0.7,0.7,1,1,301,87,1.1,0.7,165,36.9679,-121.599,5.5621,,,,,,,,,,,,,,,,,,,,,,,,,,,,,,,,,,,,,,,,,,,,,,,,,,,,,,,,,,,,,,,,,,,,,,,,,,,,,,,,,,,,,,,,,,,,,,,,,,,
1099,21526081,3.70,Mw,0,38.5043,-123.459,0.02,1.1,0.8,0.8,1,1,303,51,1.1,0.8,93,38.5061,-123.463,0,,,,,,,,,,,,,,,,,,,,,,,,,,,,,,,,,,,,,,,,,,,,,,,,,,,,,,,,,,,,,,,,,,,,,,,,,,,,,,,,,,,,,,,,,,,,,,,,,,,
1100,21549979,3.70,Mw,0,36.84665,-121.46069,1.331,0.9,0.5,0.5,1,1,133,67,0.9,0.5,176,36.8453,-121.4558,0.8984,,,,,,,,,,,,,,,,,,,,,,,,,,,,,,,,,,,,,,,,,,,,,,,,,,,,,,,,,,,,,,,,,,,,,,,,,,,,,,,,,,,,,,,,,,,,,,,,,,,
1101,51177644,3.70,Mw,0,38.39133,-122.61604,6.973,1,0.8,0.8,1,1,140,51,1,0.8,171,38.3903,-122.6091,6.4921,,,,,,,,,,,,,,,,,,,,,,,,,,,,,,,,,,,,,,,,,,,,,,,,,,,,,,,,,,,,,,,,,,,,,,,,,,,,,,,,,,,,,,,,,,,,,,,,,,,
1102,40220309,3.70,Mw,0,35.6371,-120.75594,6.53,0.8,1,0.8,1,1,342,84,0.8,1,-180,35.6402,-120.758,5.8472,,,,,,,,,,,,,,,,,,,,,,,,,,,,,,,,,,,,,,,,,,,,,,,,,,,,,,,,,,,,,,,,,,,,,,,,,,,,,,,,,,,,,,,,,,,,,,,,,,,
1103,13692644,3.74,ML,0,34.16506,-117.43315,7.875,1,0.9,0.9,1,1,314,75,1,0.9,175,34.1661,-117.4369,7.2895,,,,,,,,,,,,,,,,,,,,,,,,,,,,,,,,,,,,,,,,,,,,,,,,,,,,,,,,,,,,,,,,,,,,,,,,,,,,,,,,,,,,,,,,,,,,,,,,,,,
1104,10065241,3.52,ML,0,34.28706,-119.69482,5.225,0.7,0.5,0.4,1,1,139,88,0.7,0.5,174,34.2851,-119.6925,4.7407,,,,,,,,,,,,,,,,,,,,,,,,,,,,,,,,,,,,,,,,,,,,,,,,,,,,,,,,,,,,,,,,,,,,,,,,,,,,,,,,,,,,,,,,,,,,,,,,,,,
1105,40210467,3.60,ML,0,36.06723,-120.18609,14.523,0.9,0.7,0.6,1,1,-999,-999,0.9,0.7,-999,36.0708,-120.1827,14.1901,,,,,,,,,,,,,,,,,,,,,,,,,,,,,,,,,,,,,,,,,,,,,,,,,,,,,,,,,,,,,,,,,,,,,,,,,,,,,,,,,,,,,,,,,,,,,,,,,,,
1106,14355252,3.97,ML,0,34.13928,-117.47388,5.837,1.5,1.2,1.9,1,1,306,67,1.5,1.2,-177,34.1406,-117.4815,5.1438,,,,,,,,,,,,,,,,,,,,,,,,,,,,,,,,,,,,,,,,,,,,,,,,,,,,,,,,,,,,,,,,,,,,,,,,,,,,,,,,,,,,,,,,,,,,,,,,,,,
1107,14079184,3.78,ML,0,34.1353,-117.44765,5.857,1.1,0.9,0.9,1,1,311,68,1.1,0.9,180,34.1363,-117.4538,5.156,,,,,,,,,,,,,,,,,,,,,,,,,,,,,,,,,,,,,,,,,,,,,,,,,,,,,,,,,,,,,,,,,,,,,,,,,,,,,,,,,,,,,,,,,,,,,,,,,,,
1108,14239184,3.90,ML,0,33.86701,-117.10379,11.856,1.1,1,1.1,1,1,38,36,1.1,1,-54,33.8738,-117.107,11.3464,,,,,,,,,,,,,,,,,,,,,,,,,,,,,,,,,,,,,,,,,,,,,,,,,,,,,,,,,,,,,,,,,,,,,,,,,,,,,,,,,,,,,,,,,,,,,,,,,,,
1109,21545945,3.60,ML,0,35.85693,-120.40492,9.016,0.7,0.8,0.6,1,1,-999,-999,0.7,0.8,-999,35.8551,-120.4008,8.4904,,,,,,,,,,,,,,,,,,,,,,,,,,,,,,,,,,,,,,,,,,,,,,,,,,,,,,,,,,,,,,,,,,,,,,,,,,,,,,,,,,,,,,,,,,,,,,,,,,,
1110,10249565,3.86,ML,0,34.19759,-117.38817,14.177,1.1,1.1,1.2,1,1,308,74,1.1,1.1,174,34.1986,-117.3934,13.4592,,,,,,,,,,,,,,,,,,,,,,,,,,,,,,,,,,,,,,,,,,,,,,,,,,,,,,,,,,,,,,,,,,,,,,,,,,,,,,,,,,,,,,,,,,,,,,,,,,,
1111,10260293,3.74,ML,0,34.8437,-119.6912,11.07,0.8,0.9,0.8,1,1,318,17,0.8,0.9,57,34.8431,-119.6981,10.9123,,,,,,,,,,,,,,,,,,,,,,,,,,,,,,,,,,,,,,,,,,,,,,,,,,,,,,,,,,,,,,,,,,,,,,,,,,,,,,,,,,,,,,,,,,,,,,,,,,,
1112,10187953,3.87,ML,0,33.92795,-116.78579,18.501,0.9,1,0.9,1,1,325,60,0.9,1,170,33.9283,-116.7915,17.7979,,,,,,,,,,,,,,,,,,,,,,,,,,,,,,,,,,,,,,,,,,,,,,,,,,,,,,,,,,,,,,,,,,,,,,,,,,,,,,,,,,,,,,,,,,,,,,,,,,,
1113,14376612,3.99,ML,0,34.05141,-117.24294,14.998,1.2,1,1.3,1,1,339,63,1.2,1,-177,34.0559,-117.2491,14.3097,,,,,,,,,,,,,,,,,,,,,,,,,,,,,,,,,,,,,,,,,,,,,,,,,,,,,,,,,,,,,,,,,,,,,,,,,,,,,,,,,,,,,,,,,,,,,,,,,,,
1114,13303428,3.88,ML,0,33.1624,-115.97723,9.013,1.1,1.4,1.5,1,1,313,74,1.1,1.4,173,33.1642,-115.9822,8.4176,,,,,,,,,,,,,,,,,,,,,,,,,,,,,,,,,,,,,,,,,,,,,,,,,,,,,,,,,,,,,,,,,,,,,,,,,,,,,,,,,,,,,,,,,,,,,,,,,,,
1115,9093975,3.77,ML,0,34.01018,-118.22513,6.315,0.9,1,0.9,1,1,355,50,0.9,1,-163,34.0133,-118.2295,5.8736,,,,,,,,,,,,,,,,,,,,,,,,,,,,,,,,,,,,,,,,,,,,,,,,,,,,,,,,,,,,,,,,,,,,,,,,,,,,,,,,,,,,,,,,,,,,,,,,,,,
1116,10059245,3.68,ML,0,34.72505,-116.05057,2.727,0.9,0.8,0.7,1,1,359,65,0.9,0.8,-175,34.7285,-116.0528,2.2975,,,,,,,,,,,,,,,,,,,,,,,,,,,,,,,,,,,,,,,,,,,,,,,,,,,,,,,,,,,,,,,,,,,,,,,,,,,,,,,,,,,,,,,,,,,,,,,,,,,
1117,10231745,3.75,ML,0,32.59686,-115.57414,12.269,0.9,1,0.9,1,1,133,52,0.9,1,-180,32.5975,-115.5681,11.7113,,,,,,,,,,,,,,,,,,,,,,,,,,,,,,,,,,,,,,,,,,,,,,,,,,,,,,,,,,,,,,,,,,,,,,,,,,,,,,,,,,,,,,,,,,,,,,,,,,,
1118,14295380,4.06,ML,0,32.68225,-116.08798,9.762,1.5,0.8,1.2,1,1,121,71,1.5,0.8,171,32.6809,-116.081,9.1566,,,,,,,,,,,,,,,,,,,,,,,,,,,,,,,,,,,,,,,,,,,,,,,,,,,,,,,,,,,,,,,,,,,,,,,,,,,,,,,,,,,,,,,,,,,,,,,,,,,
1119,9915709,3.87,ML,0,33.7513,-116.02175,8.756,0.9,0.8,0.7,1,1,9,89,0.9,0.8,175,33.755,-116.0212,8.0685,,,,,,,,,,,,,,,,,,,,,,,,,,,,,,,,,,,,,,,,,,,,,,,,,,,,,,,,,,,,,,,,,,,,,,,,,,,,,,,,,,,,,,,,,,,,,,,,,,,
1120,14000376,3.59,ML,0,34.29042,-118.7412,8.884,1,0.6,0.6,1,1,132,83,1,0.6,146,34.2881,-118.737,8.3899,,,,,,,,,,,,,,,,,,,,,,,,,,,,,,,,,,,,,,,,,,,,,,,,,,,,,,,,,,,,,,,,,,,,,,,,,,,,,,,,,,,,,,,,,,,,,,,,,,,
1121,14181056,3.81,ML,0,32.49233,-116.84683,13.18,1.1,0.8,0.8,1,1,147,72,1.1,0.8,-179,32.4894,-116.8422,12.6005,,,,,,,,,,,,,,,,,,,,,,,,,,,,,,,,,,,,,,,,,,,,,,,,,,,,,,,,,,,,,,,,,,,,,,,,,,,,,,,,,,,,,,,,,,,,,,,,,,,
1122,10226877,3.81,ML,0,32.99422,-116.29765,5.726,0.9,1.3,1.1,1,1,131,77,0.9,1.3,-176,32.9931,-116.2935,5.0379,,,,,,,,,,,,,,,,,,,,,,,,,,,,,,,,,,,,,,,,,,,,,,,,,,,,,,,,,,,,,,,,,,,,,,,,,,,,,,,,,,,,,,,,,,,,,,,,,,,
1123,21261124,3.60,ML,0,37.60775,-122.47292,8.929,0.8,0.7,0.5,1,1,-999,-999,0.8,0.7,-999,37.6064,-122.4679,8.3494,,,,,,,,,,,,,,,,,,,,,,,,,,,,,,,,,,,,,,,,,,,,,,,,,,,,,,,,,,,,,,,,,,,,,,,,,,,,,,,,,,,,,,,,,,,,,,,,,,,
1124,21416422,3.60,ML,0,37.06555,-122.28308,5.852,0.8,0.8,0.7,1,1,-999,-999,0.8,0.8,-999,37.0696,-122.2849,5.3409,,,,,,,,,,,,,,,,,,,,,,,,,,,,,,,,,,,,,,,,,,,,,,,,,,,,,,,,,,,,,,,,,,,,,,,,,,,,,,,,,,,,,,,,,,,,,,,,,,,
1125,21502994,3.60,Mw,0,37.38919,-121.51771,5.014,0.7,0.8,0.6,1,1,147,64,0.7,0.8,-3,37.3879,-121.5133,4.5136,,,,,,,,,,,,,,,,,,,,,,,,,,,,,,,,,,,,,,,,,,,,,,,,,,,,,,,,,,,,,,,,,,,,,,,,,,,,,,,,,,,,,,,,,,,,,,,,,,,
1126,40216634,3.60,Mw,0,35.492,-120.78446,4.912,0.9,0.6,0.6,1,1,294,35,0.9,0.6,86,35.4922,-120.7792,4.5529,,,,,,,,,,,,,,,,,,,,,,,,,,,,,,,,,,,,,,,,,,,,,,,,,,,,,,,,,,,,,,,,,,,,,,,,,,,,,,,,,,,,,,,,,,,,,,,,,,,
1127,10293685,3.96,ML,0,32.65545,-116.13475,12.336,1.3,0.9,1.1,1,1,122,79,1.3,0.9,-173,32.654,-116.1292,11.6173,,,,,,,,,,,,,,,,,,,,,,,,,,,,,,,,,,,,,,,,,,,,,,,,,,,,,,,,,,,,,,,,,,,,,,,,,,,,,,,,,,,,,,,,,,,,,,,,,,,
1128,9644101,3.64,ML,0,33.87263,-117.71246,2.161,0.8,0.9,0.7,1,1,312,71,0.8,0.9,158,33.8739,-117.717,1.6459,,,,,,,,,,,,,,,,,,,,,,,,,,,,,,,,,,,,,,,,,,,,,,,,,,,,,,,,,,,,,,,,,,,,,,,,,,,,,,,,,,,,,,,,,,,,,,,,,,,
1129,14007388,3.73,ML,0,35.6346,-117.56574,2.693,0.9,0.7,0.6,1,1,324,88,0.9,0.7,-159,35.6374,-117.5685,2.2084,,,,,,,,,,,,,,,,,,,,,,,,,,,,,,,,,,,,,,,,,,,,,,,,,,,,,,,,,,,,,,,,,,,,,,,,,,,,,,,,,,,,,,,,,,,,,,,,,,,
1130,21335949,3.71,Mw,0,37.71729,-121.80765,16.702,1,0.8,0.8,1,1,280,39,1,0.8,65,37.714,-121.8134,16.3354,,,,,,,,,,,,,,,,,,,,,,,,,,,,,,,,,,,,,,,,,,,,,,,,,,,,,,,,,,,,,,,,,,,,,,,,,,,,,,,,,,,,,,,,,,,,,,,,,,,
1131,9986489,3.58,ML,0,33.82705,-117.02962,15.131,0.8,0.7,0.6,1,1,336,45,0.8,0.7,-179,33.8295,-117.0347,14.8175,,,,,,,,,,,,,,,,,,,,,,,,,,,,,,,,,,,,,,,,,,,,,,,,,,,,,,,,,,,,,,,,,,,,,,,,,,,,,,,,,,,,,,,,,,,,,,,,,,,
1132,10067405,3.64,ML,0,33.84546,-118.70065,12.777,0.9,1,0.9,1,1,142,59,0.9,1,139,33.844,-118.6954,12.3069,,,,,,,,,,,,,,,,,,,,,,,,,,,,,,,,,,,,,,,,,,,,,,,,,,,,,,,,,,,,,,,,,,,,,,,,,,,,,,,,,,,,,,,,,,,,,,,,,,,
1133,10182265,3.63,ML,0,32.63865,-117.32567,13.108,0.9,0.7,0.7,1,1,157,80,0.9,0.7,-164,32.635,-117.3229,12.6269,,,,,,,,,,,,,,,,,,,,,,,,,,,,,,,,,,,,,,,,,,,,,,,,,,,,,,,,,,,,,,,,,,,,,,,,,,,,,,,,,,,,,,,,,,,,,,,,,,,
1134,14366244,3.64,ML,0,33.22299,-116.71863,8.687,0.9,0.5,0.5,1,1,141,89,0.9,0.5,-176,33.2204,-116.716,8.2875,,,,,,,,,,,,,,,,,,,,,,,,,,,,,,,,,,,,,,,,,,,,,,,,,,,,,,,,,,,,,,,,,,,,,,,,,,,,,,,,,,,,,,,,,,,,,,,,,,,
1135,14295984,3.74,ML,0,34.84559,-119.24464,12.927,0.8,0.8,0.7,1,1,302,88,0.8,0.8,159,34.8474,-119.2487,12.196,,,,,,,,,,,,,,,,,,,,,,,,,,,,,,,,,,,,,,,,,,,,,,,,,,,,,,,,,,,,,,,,,,,,,,,,,,,,,,,,,,,,,,,,,,,,,,,,,,,
1136,21309098,3.37,ML,0,36.80733,-121.30617,0.93,0.7,0.8,0.6,1,1,-999,-999,0.7,0.8,-999,36.8082,-121.309,0.5141,,,,,,,,,,,,,,,,,,,,,,,,,,,,,,,,,,,,,,,,,,,,,,,,,,,,,,,,,,,,,,,,,,,,,,,,,,,,,,,,,,,,,,,,,,,,,,,,,,,
1137,30226452,3.50,Mw,0,37.91276,-122.14272,2.386,0.8,0.7,0.5,1,1,332,86,0.8,0.7,-152,37.9157,-122.1452,1.8423,,,,,,,,,,,,,,,,,,,,,,,,,,,,,,,,,,,,,,,,,,,,,,,,,,,,,,,,,,,,,,,,,,,,,,,,,,,,,,,,,,,,,,,,,,,,,,,,,,,
1138,51203888,3.50,Mw,0,37.81786,-122.06335,5.084,0.7,0.7,0.5,1,1,339,84,0.7,0.7,-162,37.8198,-122.065,4.5701,,,,,,,,,,,,,,,,,,,,,,,,,,,,,,,,,,,,,,,,,,,,,,,,,,,,,,,,,,,,,,,,,,,,,,,,,,,,,,,,,,,,,,,,,,,,,,,,,,,
1139,14204720,3.61,ML,0,34.2449,-117.44638,12.48,0.8,1,0.7,1,1,300,32,0.8,1,110,34.243,-117.4517,12.2088,,,,,,,,,,,,,,,,,,,,,,,,,,,,,,,,,,,,,,,,,,,,,,,,,,,,,,,,,,,,,,,,,,,,,,,,,,,,,,,,,,,,,,,,,,,,,,,,,,,
1140,14242516,3.69,ML,0,33.73503,-117.49355,9.693,0.9,1.1,0.9,1,1,315,58,0.9,1.1,-179,33.7355,-117.4997,9.1044,,,,,,,,,,,,,,,,,,,,,,,,,,,,,,,,,,,,,,,,,,,,,,,,,,,,,,,,,,,,,,,,,,,,,,,,,,,,,,,,,,,,,,,,,,,,,,,,,,,
1141,9081410,3.79,ML,0,34.04564,-117.22482,15.927,1,0.9,0.9,1,1,215,44,1,0.9,-72,34.0387,-117.2224,15.3243,,,,,,,,,,,,,,,,,,,,,,,,,,,,,,,,,,,,,,,,,,,,,,,,,,,,,,,,,,,,,,,,,,,,,,,,,,,,,,,,,,,,,,,,,,,,,,,,,,,
1142,13813696,3.73,ML,0,33.50584,-116.76364,16.276,1.1,1,1.1,1,1,311,81,1.1,1,-167,33.5079,-116.768,15.7054,,,,,,,,,,,,,,,,,,,,,,,,,,,,,,,,,,,,,,,,,,,,,,,,,,,,,,,,,,,,,,,,,,,,,,,,,,,,,,,,,,,,,,,,,,,,,,,,,,,
1143,10273353,3.72,ML,0,33.10993,-116.04665,7.494,0.9,1.2,1.1,1,1,117,64,0.9,1.2,-175,33.1106,-116.0413,6.8845,,,,,,,,,,,,,,,,,,,,,,,,,,,,,,,,,,,,,,,,,,,,,,,,,,,,,,,,,,,,,,,,,,,,,,,,,,,,,,,,,,,,,,,,,,,,,,,,,,,
1144,9084273,3.87,ML,0,34.14019,-116.76274,11.324,1.2,1,1.1,1,1,295,72,1.2,1,172,34.1402,-116.7682,10.6939,,,,,,,,,,,,,,,,,,,,,,,,,,,,,,,,,,,,,,,,,,,,,,,,,,,,,,,,,,,,,,,,,,,,,,,,,,,,,,,,,,,,,,,,,,,,,,,,,,,
